S.No,setpoint_raw-global_Time,setpoint_raw-global_header.seq,setpoint_raw-global_header.stamp.secs,setpoint_raw-global_latitude,setpoint_raw-global_longitude,setpoint_raw-global_altitude,battery_Time,battery_header.seq,battery_header.stamp.secs,battery_voltage,battery_current,battery_temperature,battery_percentage,global_position-local_Time,global_position-local_header.seq,global_position-local_header.stamp.secs,global_position-local_pose.pose.position.x,global_position-local_pose.pose.position.y,global_position-local_pose.pose.position.z,global_position-local_pose.pose.orientation.x,global_position-local_pose.pose.orientation.y,global_position-local_pose.pose.orientation.z,global_position-local_twist.twist.linear.x,global_position-local_twist.twist.linear.y,global_position-local_twist.twist.linear.z,imu-data_Time,imu-data_header.seq,imu-data_header.stamp.secs,imu-data_orientation.x,imu-data_orientation.y,imu-data_orientation.z,imu-data_orientation.w,imu-data_angular_velocity.x,imu-data_angular_velocity.y,imu-data_angular_velocity.z,rc-out_Time,rc-out_header.seq,rc-out_header.stamp.secs,rc-out_channels_0,rc-out_channels_1,rc-out_channels_2,rc-out_channels_3,rc-out_channels_4,vfr_hud_Time,vfr_hud_header.seq,vfr_hud_header.stamp.secs,vfr_hud_airspeed,vfr_hud_groundspeed,vfr_hud_heading,vfr_hud_throttle,vfr_hud_altitude,vfr_hud_climb,global_position-global_header.stamp.secs,global_position-global_altitude,global_position-global_longitude,global_position-global_latitude,global_position-raw-satellites_data,setpoint_raw-target_global_Time,setpoint_raw-target_global_header.seq,setpoint_raw-target_global_header.stamp.secs,setpoint_raw-target_global_latitude,setpoint_raw-target_global_longitude,setpoint_raw-target_global_altitude,setpoint_raw-target_global_yaw,state_Time,state_header.seq,state_connected,state_armed,state_guided,state_manual_input,state_system_status,RSSI_Time,RSSI_Quality,RSSI_Signal,CPU_Time,CPU_Percent,RAM_Time,Used_RAM_MB
0,1729873797.941646,351,0,33.63657556517288,72.99152084967098,1.25,1729873780.9182303,8469,1729873780,0.2290000021457672,0.01,0,-0.01,1729873780.9159615,8455,1729873779,-1.484539777,-13.4995274,-1.035,-0.017594134,0.008880247,-0.589989627,0,0,0,1729873780.916331,8458,1729873779,-0.017541371,0.008772982,-0.589743123,-0.807352701,-0.001081552,0.000857396,-1.04E-05,1729873780.9175453,8464,1729873780,1000,1000,1000,1000,0,1729873781.0025487,8468,1729873781,0.023979558,0.023869762,17,0,550.4299926757812,-0.002292078,1729873779,503.7033283191065,72.9915058,33.6365194,13,1729873798.0181384,223,1729873798,33.6365755,72.9915207,551.5599975585938,1.5707963705062866,1729873780.9180114,1094,1,0,0,1,5,1729873786.688936,0.9571428571428572,-43,1729873786.592512,6.2,1729873788.924926,5.5
1,1729873797.948842,355,0,33.63657556517288,72.99152084967098,1.25,,,,,,,,,,,,,,,,,,,,,,,,,,,,,,,,,,,,,,,,,,,,,,,,,,,,,,,,,,,,,,,,,,,,,,,,
2,1729873798.0997562,1648,0,33.63657570401417,72.99152090057824,1.25,,,,,,,,,,,,,,,,,,,,,,,,,,,,,,,,,,,,,,,,,,,,,,,,,,,,,,,,,,,,,,,,,,,,,,,,
3,1729873798.1078398,1699,0,33.63657570401417,72.99152090057824,1.25,,,,,,,,,,,,,,,,,,,,,,,,,,,,,,,,,,,,,,,,,,,,,,,,,,,,,,,,,,,,,,,,,,,,,,,,
4,1729873798.2095213,1826,0,33.63657570401417,72.99152090057824,1.25,,,,,,,,,,,,,,,,,,,,,,,,,,,,,,,,,,,,,,,,,,,,,,,,,,,,,,,,,,,,,,,,,,,,,,,,
5,1729873798.2156825,1827,0,33.63657570401417,72.99152090057824,1.25,,,,,,,,,,,,,,,,,,,,,,,,,,,,,,,,,,,,,,,,,,,,,,,,,,,,,,,,,,,,,,,,,,,,,,,,
6,1729873798.2157094,1866,0,33.63657595855939,72.99152058386959,1.25,,,,,,,,,,,,,,,,,,,,,,,,,,,,,,,,,,,,,,,,,,,,,,,,,,,,,,,,,,,,,,,,,,,,,,,,
7,1729873798.2159026,2480,0,33.63657595855939,72.99152058386959,1.25,,,,,,,,,,,,,,,,,,,,,,,,,,,,,,,,,,,,,,,,,,,,,,,,,,,,,,,,,,,,,,,,,,,,,,,,
8,1729873798,2542,0,33.63657595855939,72.99152058386959,1.25,,,,,,,,,,,,,,,,,,,,,,,,,,,,,,,,,,,,,,,,,,,,,,,,,,,,,,,,,,,,,,,,,,,,,,,,
9,1729873798.2161806,2543,0,33.63657595855939,72.99152058386959,1.25,,,,,,,,,,,,,,,,,,,,,,,,,,,,,,,,,,,,,,,,,,,,,,,,,,,,,,,,,,,,,,,,,,,,,,,,
10,1729873798.2227569,2627,0,33.63657595855939,72.99152058386959,1.25,,,,,,,,,,,,,,,,,,,,,,,,,,,,,,,,,,,,,,,,,,,,,,,,,,,,,,,,,,,,,,,,,,,,,,,,
11,1729873798.2333307,2637,0,33.63657628676512,72.99152018793666,1.25,,,,,,,,,,,,,,,,,,,,,,,,,,,,,,,,,,,,,,,,,,,,,,,,,,,,,,,,,,,,,,,,,,,,,,,,
12,1729873798.380846,3415,0,33.63657628676512,72.99152018793666,1.25,,,,,,,,,,,,,,,,,,,,,,,,,,,,,,,,,,,,,,,,,,,,,,,,,,,,,,,,,,,,,,,,,,,,,,,,
13,1729873798.3837607,3886,0,33.63657648167668,72.99151995915997,1.25,,,,,,,,,,,,,,,,,,,,,,,,,,,,,,,,,,,,,,,,,,,,,,,,,,,,,,,,,,,,,,,,,,,,,,,,
14,1729873798.4028745,4045,0,33.63657648167668,72.99151995915997,1.25,,,,,,,,,,,,,,,,,,,,,,,,,,,,,,,,,,,,,,,,,,,,,,,,,,,,,,,,,,,,,,,,,,,,,,,,
15,1729873798.4227202,4206,0,33.63657648167668,72.99151995915997,1.25,,,,,,,,,,,,,,,,,,,,,,,,,,,,,,,,,,,,,,,,,,,,,,,,,,,,,,,,,,,,,,,,,,,,,,,,
16,1729873798.5547874,5001,0,33.63657653578378,72.99151969646728,1.25,,,,,,,,,,,,,,,,,,,,,,,,,,,,,,,,,,,,,,,,,,,,,,,,,,,,,,,,,,,,,,,,,,,,,,,,
17,1729873798.559253,5002,0,33.63657653578378,72.99151969646728,1.25,,,,,,,,,,,,,,,,,,,,,,,,,,,,,,,,,,,,,,,,,,,,,,,,,,,,,,,,,,,,,,,,,,,,,,,,
18,1729873798.5593116,5264,0,33.63657645805069,72.99151968664505,1.25,1729873780.9186711,8470,1729873780,0.2349999994039535,0.01,0,-0.01,1729873780.916091,8456,1729873779,-1.484539781,-13.51061989,-1.028,-0.017577877,0.008832119,-0.589951323,0.01,0,0,1729873780.916524,8459,1729873780,-0.017552387,0.008829307,-0.589615117,-0.807445336,9.470060467720032e-05,9.24337655305862e-05,-0.000467575,1729873780.9177868,8465,1729873780,1000,1000,1000,1000,0,1729873781.102466,8469,1729873781,0.022747679,0.022359364,17,0,550.4299926757812,-0.004185167,1729873779,503.7033283191065,72.9915058,33.6365194,13,,,,,,,,,,,,,,,,,,,,,
19,1729873798.7278423,5842,0,33.63657632023284,72.99151984832352,1.25,,,,,,,,,,,,,,,,,,,,,,,,,,,,,,,,,,,,,,,,,,,,,,,,,,,,,,,,,,,,,,,,,,,,,,,,
20,1729873798.730797,6472,0,33.63657622023284,72.99151974832354,1.25,,,,,,,,,,,,,,,,,,,,,,,,,,,,,,,,,,,,,,,,,,,,,,,,,,,,,,,,,,,,,,,,,,,,,,,,
21,1729873798.730976,6612,0,33.63657622023284,72.99151974832354,1.25,,,,,,,,,,,,,,,,,,,,,,,,,,,,,,,,,,,,,,,,,,,,,,,,,,,,,,,,,,,,,,,,,,,,,,,,
22,1729873798.731007,6613,0,33.63657622023284,72.99151974832354,1.25,,,,,,,,,,,,,,,,,,,,,,,,,,,,,,,,,,,,,,,,,,,,,,,,,,,,,,,,,,,,,,,,,,,,,,,,
23,1729873798.9006636,7113,0,33.63657608005605,72.99151991516923,1.25,,,,,,,,,,,,,,,,,,,,,,,,,,,,,,,,,,,,,,,,,,,,,,,,,,,,,,,,,,,,,,,,,,,,,,,,
24,1729873798.9059458,7419,0,33.63657608005605,72.99151991516923,1.25,,,,,,,,,,,,,,,,,,,,,,,,,,,,,,,,,,,,,,,,,,,,,,,,,,,,,,,,,,,,,,,,,,,,,,,,
25,1729873798.9059918,7633,0,33.63657584750443,72.99151997521331,1.25,,,,,,,,,,,,,,,,,,,,,,,,,,,,,,,,,,,,,,,,,,,,,,,,,,,,,,,,,,,,,,,,,,,,,,,,
26,1729873798.906651,7635,0,33.63657584750443,72.99151997521331,1.25,,,,,,,,,,,,,,,,,,,,,,,,,,,,,,,,,,,,,,,,,,,,,,,,,,,,,,,,,,,,,,,,,,,,,,,,
27,1729873798.906695,7636,0,33.63657584750443,72.99151997521331,1.25,,,,,,,,,,,,,,,,,,,,,,,,,,,,,,,,,,,,,,,,,,,,,,,,,,,,,,,,,,,,,,,,,,,,,,,,
28,1729873799,7638,0,33.63657584750443,72.99151997521331,1.25,,,,,,,,,,,,,,,,,,,,,,,,,,,,,,,,,,,,,,,,,,,,,,,,,,,,,,,,,,,,,,,,,,,,,,,,
29,1729873798.9067423,7641,0,33.63657584750443,72.99151997521331,1.25,,,,,,,,,,,,,,,,,,,,,,,,,,,,,,,,,,,,,,,,,,,,,,,,,,,,,,,,,,,,,,,,,,,,,,,,
30,1729873798.9069116,7642,0,33.63657584750443,72.99151997521331,1.25,,,,,,,,,,,,,,,,,,,,,,,,,,,,,,,,,,,,,,,,,,,,,,,,,,,,,,,,,,,,,,,,,,,,,,,,
31,1729873798.9069452,7644,0,33.63657584750443,72.99151997521331,1.25,,,,,,,,,,,,,,,,,,,,,,,,,,,,,,,,,,,,,,,,,,,,,,,,,,,,1729873798.117349,224,1729873798,33.6365757,72.9915209,551.5599975585938,1.5707963705062866,,,,,,,,,,,,,,
32,1729873798.9069748,7645,0,33.63657584750443,72.99151997521331,1.25,,,,,,,,,,,,,,,,,,,,,,,,,,,,,,,,,,,,,,,,,,,,,,,,,,,,,,,,,,,,,,,,,,,,,,,,
33,1729873798.9069984,7648,0,33.63657584750443,72.99151997521331,1.25,,,,,,,,,,,,,,,,,,,,,,,,,,,,,,,,,,,,,,,,,,,,,,,,,,,,,,,,,,,,,,,,,,,,,,,,
34,1729873798.9070208,7650,0,33.63657584750443,72.99151997521331,1.25,,,,,,,,,,,,,,,,,,,,,,,,,,,,,,,,,,,,,,,,,,,,,,,,,,,,,,,,,,,,,,,,,,,,,,,,
35,1729873798.9074843,7654,0,33.63657584750443,72.99151997521331,1.25,,,,,,,,,,,,,,,,,,,,,,,,,,,,,,,,,,,,,,,,,,,,,,,,,,,,,,,,,,,,,,,,,,,,,,,,
36,1729873798.9075172,7657,0,33.63657584750443,72.99151997521331,1.25,1729873781.0127904,8471,1729873781,0.1990000009536743,0.01,0,-0.01,1729873780.918011,8457,1729873779,-1.484539781,-13.51061989,-1.022,-0.017558528,0.008765621,-0.589879741,0.01,0,0,1729873780.9167335,8460,1729873780,-0.017575633,0.008916068,-0.589489833,-0.807535347,0.000969701,-0.000556076,-0.000764831,1729873780.9180243,8466,1729873780,1000,1000,1000,1000,0,1729873781.202499,8470,1729873781,0.022634417,0.021929726,17,0,550.4199829101562,-0.005603915,1729873779,503.7133277065845,72.9915058,33.6365193,13,,,,,,,,,,,,,,,,,,,,,
37,1729873798.9077222,7662,0,33.63657584750443,72.99151997521331,1.25,,,,,,,,,,,,,,,,,,,,,,,,,,,,,,,,,,,,,,,,,,,,,,,,,,,,,,,,,,,,,,,,,,,,,,,,
38,1729873798.9097767,7677,0,33.63657584750443,72.99151997521331,1.25,,,,,,,,,,,,,,,,,,,,,,,,,,,,,,,,,,,,,,,,,,,,,,,,,,,,,,,,,,,,,,,,,,,,,,,,
39,1729873798.9098198,7691,0,33.63657584750443,72.99151997521331,1.25,,,,,,,,,,,,,,,,,,,,,,,,,,,,,,,,,,,,,,,,,,,,,,,,,,,,,,,,,,,,,,,,,,,,,,,,
40,1729873798.9098463,7706,0,33.63657584750443,72.99151997521331,1.25,,,,,,,,,,,,,,,,,,,,,,,,,,,,,,,,,,,,,,,,,,,,,,,,,,,,,,,,,,,,,,,,,,,,,,,,
41,1729873798.9098678,7721,0,33.63657584750443,72.99151997521331,1.25,,,,,,,,,,,,,,,,,,,,,,,,,,,,,,,,,,,,,,,,,,,,,,,,,,,,,,,,,,,,,,,,,,,,,,,,
42,1729873798.910052,7735,0,33.63657584750443,72.99151997521331,1.25,,,,,,,,,,,,,,,,,,,,,,,,,,,,,,,,,,,,,,,,,,,,,,,,,,,,,,,,,,,,,,,,,,,,,,,,
43,1729873799,7750,0,33.63657584750443,72.99151997521331,1.25,,,,,,,,,,,,,,,,,,,,,,,,,,,,,,,,,,,,,,,,,,,,,,,,,,,,,,,,,,,,,,,,,,,,,,,,
44,1729873798.910289,7765,0,33.63657584750443,72.99151997521331,1.25,,,,,,,,,,,,,,,,,,,,,,,,,,,,,,,,,,,,,,,,,,,,,,,,,,,,,,,,,,,,,,,,,,,,,,,,
45,1729873798.9103155,7779,0,33.63657584750443,72.99151997521331,1.25,,,,,,,,,,,,,,,,,,,,,,,,,,,,,,,,,,,,,,,,,,,,,,,,,,,,,,,,,,,,,,,,,,,,,,,,
46,1729873798.910473,7787,0,33.63657584750443,72.99151997521331,1.25,,,,,,,,,,,,,,,,,,,,,,,,,,,,,,,,,,,,,,,,,,,,,,,,,,,,,,,,,,,,,,,,,,,,,,,,
47,1729873798.9105134,7868,0,33.63657584750443,72.99151997521331,1.25,,,,,,,,,,,,,,,,,,,,,,,,,,,,,,,,,,,,,,,,,,,,,,,,,,,,,,,,,,,,,,,,,,,,,,,,
48,1729873798.9142053,7898,0,33.63657584750443,72.99151997521331,1.25,,,,,,,,,,,,,,,,,,,,,,,,,,,,,,,,,,,,,,,,,,,,,,,,,,,,,,,,,,,,,,,,,,,,,,,,
49,1729873798.918974,7924,0,33.63657584750443,72.99151997521331,1.25,,,,,,,,,,,,,,,,,,,,,,,,,,,,,,,,,,,,,,,,,,,,,,,,,,,,,,,,,,,,,,,,,,,,,,,,
50,1729873798.9190218,7937,0,33.63657584750443,72.99151997521331,1.25,,,,,,,,,,,,,,,,,,,,,,,,,,,,,,,,,,,,,,,,,,,,,,,,,,,,,,,,,,,,,,,,,,,,,,,,
51,1729873798.931703,7946,0,33.63657584750443,72.99151997521331,1.25,,,,,,,,,,,,,,,,,,,,,,,,,,,,,,,,,,,,,,,,,,,,,,,,,,,,,,,,,,,,,,,,,,,,,,,,
52,1729873798.931749,7968,0,33.63657567170951,72.99151997,1.25,,,,,,,,,,,,,,,,,,,,,,,,,,,,,,,,,,,,,,,,,,,,,,,,,,,,,,,,,,,,,,,,,,,,,,,,
53,1729873798.9440932,7989,0,33.63657567170951,72.99151997,1.25,,,,,,,,,,,,,,,,,,,,,,,,,,,,,,,,,,,,,,,,,,,,,,,,,,,,,,,,,,,,,,,,,,,,,,,,
54,1729873798.944121,7990,0,33.63657567170951,72.99151997,1.25,1729873781.1124496,8472,1729873781,0.2199999988079071,0.01,0,-0.01,1729873780.9184308,8458,1729873779,-1.484539781,-13.51061989,-1.021,-0.017541371,0.008772982,-0.589743123,0.01,0,0,1729873780.9169014,8461,1729873780,-0.017570044,0.008970445,-0.589370655,-0.807621852,-0.000309095,-0.000320785,0.000641175,1729873781,8467,1729873780,1000,1000,1000,1000,0,1729873781.302709,8471,1729873781,0.022487137,0.021709548,17,0,550.4199829101562,-0.005862319,1729873779,503.7133277065845,72.9915058,33.6365193,13,,,,,,,,,,,,,,,,,,,,,
55,1729873798.9442074,7991,0,33.63657567170951,72.99151997,1.25,,,,,,,,,,,,,,,,,,,,,,,,,,,,,,,,,,,,,,,,,,,,,,,,,,,,,,,,,,,,,,,,,,,,,,,,
56,1729873798.9443486,7992,0,33.63657567170951,72.99151997,1.25,,,,,,,,,,,,,,,,,,,,,,,,,,,,,,,,,,,,,,,,,,,,,,,,,,,,,,,,,,,,,,,,,,,,,,,,
57,1729873798.9443803,7993,0,33.63657567170951,72.99151997,1.25,,,,,,,,,,,,,,,,,,,,,,,,,,,,,,,,,,,,,,,,,,,,,,,,,,,,,,,,,,,,,,,,,,,,,,,,
58,1729873798.9444194,7994,0,33.63657567170951,72.99151997,1.25,,,,,,,,,,,,,,,,,,,,,,,,,,,,,,,,,,,,,,,,,,,,,,,,,,,,,,,,,,,,,,,,,,,,,,,,
59,1729873798.944458,7995,0,33.63657567170951,72.99151997,1.25,,,,,,,,,,,,,,,,,,,,,,,,,,,,,,,,,,,,,,,,,,,,,,,,,,,,,,,,,,,,,,,,,,,,,,,,
60,1729873798.9444852,7996,0,33.63657567170951,72.99151997,1.25,,,,,,,,,,,,,,,,,,,,,,,,,,,,,,,,,,,,,,,,,,,,,,,,,,,,,,,,,,,,,,,,,,,,,,,,
61,1729873798.9445078,7997,0,33.63657567170951,72.99151997,1.25,,,,,,,,,,,,,,,,,,,,,,,,,,,,,,,,,,,,,,,,,,,,,,,,,,,,,,,,,,,,,,,,,,,,,,,,
62,1729873798.9446435,7998,0,33.63657567170951,72.99151997,1.25,,,,,,,,,,,,,,,,,,,,,,,,,,,,,,,,,,,,,,,,,,,,,,,,,,,,1729873798.2153606,225,1729873798,33.6365757,72.9915209,551.5599975585938,1.5707963705062866,,,,,,,,,,,,,,
63,1729873798.9447775,7999,0,33.63657567170951,72.99151997,1.25,,,,,,,,,,,,,,,,,,,,,,,,,,,,,,,,,,,,,,,,,,,,,,,,,,,,,,,,,,,,,,,,,,,,,,,,
64,1729873798.944804,8000,0,33.63657567170951,72.99151997,1.25,,,,,,,,,,,,,,,,,,,,,,,,,,,,,,,,,,,,,,,,,,,,,,,,,,,,,,,,,,,,,,,,,,,,,,,,
65,1729873798.9448256,8001,0,33.63657567170951,72.99151997,1.25,,,,,,,,,,,,,,,,,,,,,,,,,,,,,,,,,,,,,,,,,,,,,,,,,,,,,,,,,,,,,,,,,,,,,,,,
66,1729873798.9449496,8002,0,33.63657567170951,72.99151997,1.25,,,,,,,,,,,,,,,,,,,,,,,,,,,,,,,,,,,,,,,,,,,,,,,,,,,,,,,,,,,,,,,,,,,,,,,,
67,1729873798.9449763,8003,0,33.63657567170951,72.99151997,1.25,,,,,,,,,,,,,,,,,,,,,,,,,,,,,,,,,,,,,,,,,,,,,,,,,,,,,,,,,,,,,,,,,,,,,,,,
68,1729873798.9449985,8004,0,33.63657567170951,72.99151997,1.25,,,,,,,,,,,,,,,,,,,,,,,,,,,,,,,,,,,,,,,,,,,,,,,,,,,,,,,,,,,,,,,,,,,,,,,,
69,1729873798.9450192,8005,0,33.63657567170951,72.99151997,1.25,,,,,,,,,,,,,,,,,,,,,,,,,,,,,,,,,,,,,,,,,,,,,,,,,,,,,,,,,,,,,,,,,,,,,,,,
70,1729873798.945155,8006,0,33.63657567170951,72.99151997,1.25,,,,,,,,,,,,,,,,,,,,,,,,,,,,,,,,,,,,,,,,,,,,,,,,,,,,,,,,,,,,,,,,,,,,,,,,
71,1729873798.9451835,8007,0,33.63657567170951,72.99151997,1.25,,,,,,,,,,,,,,,,,,,,,,,,,,,,,,,,,,,,,,,,,,,,,,,,,,,,,,,,,,,,,,,,,,,,,,,,
72,1729873798.9452062,8008,0,33.63657567170951,72.99151997,1.25,1729873781.2141285,8473,1729873781,0.2010000050067901,0.01,0,-0.01,1729873780.9190078,8459,1729873780,-1.484539781,-13.51061989,-1.024,-0.017552387,0.008829307,-0.589615117,0.01,0,0,1729873780.9171076,8462,1729873780,-0.017581949,0.009018785,-0.589280614,-0.807686755,0.000269054,0.00026009,-0.000558939,1729873781.0025191,8468,1729873781,1000,1000,1000,1000,0,1729873781.4014795,8472,1729873781,0.022787487,0.021885311,17,0,550.4099731445312,-0.006348446,1729873779,503.7133277065845,72.9915058,33.6365193,13,,,,,,,,,,,,,,,,,,,,,
73,1729873798.945333,8009,0,33.63657567170951,72.99151997,1.25,,,,,,,,,,,,,,,,,,,,,,,,,,,,,,,,,,,,,,,,,,,,,,,,,,,,,,,,,,,,,,,,,,,,,,,,
74,1729873798.945464,8010,0,33.63657567170951,72.99151997,1.25,,,,,,,,,,,,,,,,,,,,,,,,,,,,,,,,,,,,,,,,,,,,,,,,,,,,,,,,,,,,,,,,,,,,,,,,
75,1729873798.9454887,8011,0,33.63657567170951,72.99151997,1.25,,,,,,,,,,,,,,,,,,,,,,,,,,,,,,,,,,,,,,,,,,,,,,,,,,,,,,,,,,,,,,,,,,,,,,,,
76,1729873798.9455097,8012,0,33.63657567170951,72.99151997,1.25,,,,,,,,,,,,,,,,,,,,,,,,,,,,,,,,,,,,,,,,,,,,,,,,,,,,,,,,,,,,,,,,,,,,,,,,
77,1729873798.9456534,8013,0,33.63657567170951,72.99151997,1.25,,,,,,,,,,,,,,,,,,,,,,,,,,,,,,,,,,,,,,,,,,,,,,,,,,,,,,,,,,,,,,,,,,,,,,,,
78,1729873799,8014,0,33.63657567170951,72.99151997,1.25,,,,,,,,,,,,,,,,,,,,,,,,,,,,,,,,,,,,,,,,,,,,,,,,,,,,,,,,,,,,,,,,,,,,,,,,
79,1729873798.9458208,8015,0,33.63657567170951,72.99151997,1.25,,,,,,,,,,,,,,,,,,,,,,,,,,,,,,,,,,,,,,,,,,,,,,,,,,,,,,,,,,,,,,,,,,,,,,,,
80,1729873798.9458437,8016,0,33.63657567170951,72.99151997,1.25,,,,,,,,,,,,,,,,,,,,,,,,,,,,,,,,,,,,,,,,,,,,,,,,,,,,,,,,,,,,,,,,,,,,,,,,
81,1729873798.945953,8017,0,33.63657567170951,72.99151997,1.25,,,,,,,,,,,,,,,,,,,,,,,,,,,,,,,,,,,,,,,,,,,,,,,,,,,,,,,,,,,,,,,,,,,,,,,,
82,1729873798.9459774,8018,0,33.63657567170951,72.99151997,1.25,,,,,,,,,,,,,,,,,,,,,,,,,,,,,,,,,,,,,,,,,,,,,,,,,,,,,,,,,,,,,,,,,,,,,,,,
83,1729873798.9460013,8019,0,33.63657567170951,72.99151997,1.25,,,,,,,,,,,,,,,,,,,,,,,,,,,,,,,,,,,,,,,,,,,,,,,,,,,,,,,,,,,,,,,,,,,,,,,,
84,1729873798.9461334,8020,0,33.63657567170951,72.99151997,1.25,,,,,,,,,,,,,,,,,,,,,,,,,,,,,,,,,,,,,,,,,,,,,,,,,,,,,,,,,,,,,,,,,,,,,,,,
85,1729873798.9461606,8021,0,33.63657567170951,72.99151997,1.25,,,,,,,,,,,,,,,,,,,,,,,,,,,,,,,,,,,,,,,,,,,,,,,,,,,,,,,,,,,,,,,,,,,,,,,,
86,1729873798.9461827,8022,0,33.63657567170951,72.99151997,1.25,,,,,,,,,,,,,,,,,,,,,,,,,,,,,,,,,,,,,,,,,,,,,,,,,,,,,,,,,,,,,,,,,,,,,,,,
87,1729873798.946215,8023,0,33.63657567170951,72.99151997,1.25,,,,,,,,,,,,,,,,,,,,,,,,,,,,,,,,,,,,,,,,,,,,,,,,,,,,,,,,,,,,,,,,,,,,,,,,
88,1729873798.946236,8024,0,33.63657567170951,72.99151997,1.25,,,,,,,,,,,,,,,,,,,,,,,,,,,,,,,,,,,,,,,,,,,,,,,,,,,,,,,,,,,,,,,,,,,,,,,,
89,1729873798.9463823,8025,0,33.63657567170951,72.99151997,1.25,,,,,,,,,,,,,,,,,,,,,,,,,,,,,,,,,,,,,,,,,,,,,,,,,,,,,,,,,,,,,,,,,,,,,,,,
90,1729873798.9465072,8026,0,33.63657567170951,72.99151997,1.25,1729873781.3141348,8474,1729873781,0.2290000021457672,0.01,0,-0.01,1729873780.919073,8460,1729873780,-1.484539782,-13.52171235,-1.023,-0.017575633,0.008916068,-0.589489833,0.01,0,0,1729873780.917332,8463,1729873780,-0.017620509,0.009080775,-0.589221609,-0.807728267,-0.000298977,-0.000716101,-0.000765033,1729873781.1026971,8469,1729873781,1000,1000,1000,1000,0,1729873781.5027063,8473,1729873781,0.023515666,0.022388678,17,0,550.4099731445312,-0.007192609,1729873780,503.7133277065845,72.9915058,33.6365193,13,,,,,,,,,,,,,,,,,,,,,
91,1729873798.9465451,8027,0,33.63657567170951,72.99151997,1.25,,,,,,,,,,,,,,,,,,,,,,,,,,,,,,,,,,,,,,,,,,,,,,,,,,,,,,,,,,,,,,,,,,,,,,,,
92,1729873798.9465704,8028,0,33.63657567170951,72.99151997,1.25,,,,,,,,,,,,,,,,,,,,,,,,,,,,,,,,,,,,,,,,,,,,,,,,,,,,,,,,,,,,,,,,,,,,,,,,
93,1729873798.9468846,8029,0,33.63657567170951,72.99151997,1.25,,,,,,,,,,,,,,,,,,,,,,,,,,,,,,,,,,,,,,,,,,,,,,,,,,,,1729873798.3134224,226,1729873798,33.6365762,72.99152,551.5599975585938,1.5707963705062866,,,,,,,,,,,,,,
94,1729873798.9469085,8030,0,33.63657567170951,72.99151997,1.25,,,,,,,,,,,,,,,,,,,,,,,,,,,,,,,,,,,,,,,,,,,,,,,,,,,,,,,,,,,,,,,,,,,,,,,,
95,1729873799.071932,8031,0,33.63657567170951,72.99151997,1.25,,,,,,,,,,,,,,,,,,,,,,,,,,,,,,,,,,,,,,,,,,,,,,,,,,,,,,,,,,,,,,,,,,,,,,,,
96,1729873799.0719757,8032,0,33.63657567170951,72.99151997,1.25,,,,,,,,,,,,,,,,,,,,,,,,,,,,,,,,,,,,,,,,,,,,,,,,,,,,,,,,,,,,,,,,,,,,,,,,
97,1729873799.072086,8033,0,33.63657567170951,72.99151997,1.25,,,,,,,,,,,,,,,,,,,,,,,,,,,,,,,,,,,,,,,,,,,,,,,,,,,,,,,,,,,,,,,,,,,,,,,,
98,1729873799.072242,8034,0,33.63657567170951,72.99151997,1.25,,,,,,,,,,,,,,,,,,,,,,,,,,,,,,,,,,,,,,,,,,,,,,,,,,,,,,,,,,,,,,,,,,,,,,,,
99,1729873799.0722878,8035,0,33.63657567170951,72.99151997,1.25,,,,,,,,,,,,,,,,,,,,,,,,,,,,,,,,,,,,,,,,,,,,,,,,,,,,,,,,,,,,,,,,,,,,,,,,
100,1729873799.0723157,8036,0,33.63657567170951,72.99151997,1.25,,,,,,,,,,,,,,,,,,,,,,,,,,,,,,,,,,,,,,,,,,,,,,,,,,,,,,,,,,,,,,,,,,,,,,,,
101,1729873799.0723555,8037,0,33.63657567170951,72.99151997,1.25,,,,,,,,,,,,,,,,,,,,,,,,,,,,,,,,,,,,,,,,,,,,,,,,,,,,,,,,,,,,,,,,,,,,,,,,
102,1729873799.0723872,8038,0,33.63657567170951,72.99151997,1.25,,,,,,,,,,,,,,,,,,,,,,,,,,,,,,,,,,,,,,,,,,,,,,,,,,,,,,,,,,,,,,,,,,,,,,,,
103,1729873799.0724137,8039,0,33.63657567170951,72.99151997,1.25,,,,,,,,,,,,,,,,,,,,,,,,,,,,,,,,,,,,,,,,,,,,,,,,,,,,,,,,,,,,,,,,,,,,,,,,
104,1729873799.0724394,8040,0,33.63657567170951,72.99151997,1.25,,,,,,,,,,,,,,,,,,,,,,,,,,,,,,,,,,,,,,,,,,,,,,,,,,,,,,,,,,,,,,,,,,,,,,,,
105,1729873799.0726013,8041,0,33.63657567170951,72.99151997,1.25,,,,,,,,,,,,,,,,,,,,,,,,,,,,,,,,,,,,,,,,,,,,,,,,,,,,,,,,,,,,,,,,,,,,,,,,
106,1729873799.0728004,8042,0,33.63657567170951,72.99151997,1.25,,,,,,,,,,,,,,,,,,,,,,,,,,,,,,,,,,,,,,,,,,,,,,,,,,,,,,,,,,,,,,,,,,,,,,,,
107,1729873799.0729554,8043,0,33.63657567170951,72.99151997,1.25,,,,,,,,,,,,,,,,,,,,,,,,,,,,,,,,,,,,,,,,,,,,,,,,,,,,,,,,,,,,,,,,,,,,,,,,
108,1729873799.0729933,8044,0,33.63657567170951,72.99151997,1.25,1729873781,8475,1729873781,0.2300000041723251,0.01,0,-0.01,1729873780.919494,8461,1729873780,-1.484539786,-13.53280483,-1.018,-0.017570044,0.008970445,-0.589370655,0,0,0,1729873780.917505,8464,1729873780,-0.017657843,0.009160687,-0.589192025,-0.807748129,-0.001450906,-0.001316933,-0.000358186,1729873781.202461,8470,1729873781,1000,1000,1000,1000,0,1729873781.6026254,8474,1729873781,0.023637941,0.022729089,17,0,550.4199829101562,-0.00649159,1729873780,503.7133270940623,72.9915058,33.6365192,13,,,,,,,,,,,,,,,,,,,,,
109,1729873799.073489,8045,0,33.63657567170951,72.99151997,1.25,,,,,,,,,,,,,,,,,,,,,,,,,,,,,,,,,,,,,,,,,,,,,,,,,,,,,,,,,,,,,,,,,,,,,,,,
110,1729873799.0735238,8046,0,33.63657567170951,72.99151997,1.25,,,,,,,,,,,,,,,,,,,,,,,,,,,,,,,,,,,,,,,,,,,,,,,,,,,,,,,,,,,,,,,,,,,,,,,,
111,1729873799.0735707,8047,0,33.63657567170951,72.99151997,1.25,,,,,,,,,,,,,,,,,,,,,,,,,,,,,,,,,,,,,,,,,,,,,,,,,,,,,,,,,,,,,,,,,,,,,,,,
112,1729873799.0736089,8048,0,33.63657567170951,72.99151997,1.25,,,,,,,,,,,,,,,,,,,,,,,,,,,,,,,,,,,,,,,,,,,,,,,,,,,,,,,,,,,,,,,,,,,,,,,,
113,1729873799.0736415,8049,0,33.63657567170951,72.99151997,1.25,,,,,,,,,,,,,,,,,,,,,,,,,,,,,,,,,,,,,,,,,,,,,,,,,,,,,,,,,,,,,,,,,,,,,,,,
114,1729873799.0737176,8050,0,33.63657567170951,72.99151997,1.25,,,,,,,,,,,,,,,,,,,,,,,,,,,,,,,,,,,,,,,,,,,,,,,,,,,,,,,,,,,,,,,,,,,,,,,,
115,1729873799.0737429,8051,0,33.63657567170951,72.99151997,1.25,,,,,,,,,,,,,,,,,,,,,,,,,,,,,,,,,,,,,,,,,,,,,,,,,,,,,,,,,,,,,,,,,,,,,,,,
116,1729873799.0738814,8052,0,33.63657567170951,72.99151997,1.25,,,,,,,,,,,,,,,,,,,,,,,,,,,,,,,,,,,,,,,,,,,,,,,,,,,,,,,,,,,,,,,,,,,,,,,,
117,1729873799.0740204,8053,0,33.63657567170951,72.99151997,1.25,,,,,,,,,,,,,,,,,,,,,,,,,,,,,,,,,,,,,,,,,,,,,,,,,,,,,,,,,,,,,,,,,,,,,,,,
118,1729873799.074047,8054,0,33.63657567170951,72.99151997,1.25,,,,,,,,,,,,,,,,,,,,,,,,,,,,,,,,,,,,,,,,,,,,,,,,,,,,,,,,,,,,,,,,,,,,,,,,
119,1729873799.0740826,8055,0,33.63657567170951,72.99151997,1.25,,,,,,,,,,,,,,,,,,,,,,,,,,,,,,,,,,,,,,,,,,,,,,,,,,,,,,,,,,,,,,,,,,,,,,,,
120,1729873799.0741162,8056,0,33.63657567170951,72.99151997,1.25,,,,,,,,,,,,,,,,,,,,,,,,,,,,,,,,,,,,,,,,,,,,,,,,,,,,,,,,,,,,,,,,,,,,,,,,
121,1729873799.0742552,8057,0,33.63657567170951,72.99151997,1.25,,,,,,,,,,,,,,,,,,,,,,,,,,,,,,,,,,,,,,,,,,,,,,,,,,,,,,,,,,,,,,,,,,,,,,,,
122,1729873799.0742986,8058,0,33.63657567170951,72.99151997,1.25,,,,,,,,,,,,,,,,,,,,,,,,,,,,,,,,,,,,,,,,,,,,,,,,,,,,,,,,,,,,,,,,,,,,,,,,
123,1729873799.074324,8059,0,33.63657567170951,72.99151997,1.25,,,,,,,,,,,,,,,,,,,,,,,,,,,,,,,,,,,,,,,,,,,,,,,,,,,,,,,,,,,,,,,,,,,,,,,,
124,1729873799.0743458,8060,0,33.63657567170951,72.99151997,1.25,,,,,,,,,,,,,,,,,,,,,,,,,,,,,,,,,,,,,,,,,,,,,,,,,,,,1729873798.4120026,227,1729873798,33.6365762,72.99152,551.5599975585938,1.5707963705062866,,,,,,,,,,,,,,
125,1729873799.0743682,8061,0,33.63657567170951,72.99151997,1.25,,,,,,,,,,,,,,,,,,,,,,,,,,,,,,,,,,,,,,,,,,,,,,,,,,,,,,,,,,,,,,,,,,,,,,,,
126,1729873799.0746915,8062,0,33.63657567170951,72.99151997,1.25,1729873781.5125384,8476,1729873781,0.2809999883174896,0.01,0,-0.01,1729873780.9293282,8462,1729873780,-1.484539788,-13.5438973,-1.015,-0.017581949,0.009018785,-0.589280614,0,0,0,1729873781,8465,1729873780,-0.01768689,0.009204613,-0.589140936,-0.807784257,0.000107856,-0.000648987,9.982800111174592e-05,1729873781.3026965,8471,1729873781,1000,1000,1000,1000,0,1729873781.7031264,8475,1729873781,0.024131009,0.023292897,17,0,550.4199829101562,-0.006304492,1729873780,503.7233264815403,72.9915058,33.6365191,13,,,,,,,,,,,,,,,,,,,,,
127,1729873799,8063,0,33.63657567170951,72.99151997,1.25,,,,,,,,,,,,,,,,,,,,,,,,,,,,,,,,,,,,,,,,,,,,,,,,,,,,,,,,,,,,,,,,,,,,,,,,
128,1729873799.0748472,8064,0,33.63657567170951,72.99151997,1.25,,,,,,,,,,,,,,,,,,,,,,,,,,,,,,,,,,,,,,,,,,,,,,,,,,,,,,,,,,,,,,,,,,,,,,,,
129,1729873799.074869,8065,0,33.63657567170951,72.99151997,1.25,,,,,,,,,,,,,,,,,,,,,,,,,,,,,,,,,,,,,,,,,,,,,,,,,,,,,,,,,,,,,,,,,,,,,,,,
130,1729873799.0750034,8066,0,33.63657567170951,72.99151997,1.25,,,,,,,,,,,,,,,,,,,,,,,,,,,,,,,,,,,,,,,,,,,,,,,,,,,,,,,,,,,,,,,,,,,,,,,,
131,1729873799.075035,8067,0,33.63657567170951,72.99151997,1.25,,,,,,,,,,,,,,,,,,,,,,,,,,,,,,,,,,,,,,,,,,,,,,,,,,,,,,,,,,,,,,,,,,,,,,,,
132,1729873799.0750604,8068,0,33.63657567170951,72.99151997,1.25,,,,,,,,,,,,,,,,,,,,,,,,,,,,,,,,,,,,,,,,,,,,,,,,,,,,,,,,,,,,,,,,,,,,,,,,
133,1729873799.0751908,8069,0,33.63657567170951,72.99151997,1.25,,,,,,,,,,,,,,,,,,,,,,,,,,,,,,,,,,,,,,,,,,,,,,,,,,,,,,,,,,,,,,,,,,,,,,,,
134,1729873799.0752184,8070,0,33.63657567170951,72.99151997,1.25,,,,,,,,,,,,,,,,,,,,,,,,,,,,,,,,,,,,,,,,,,,,,,,,,,,,,,,,,,,,,,,,,,,,,,,,
135,1729873799.075298,8071,0,33.63657567170951,72.99151997,1.25,,,,,,,,,,,,,,,,,,,,,,,,,,,,,,,,,,,,,,,,,,,,,,,,,,,,,,,,,,,,,,,,,,,,,,,,
136,1729873799.0753248,8072,0,33.63657567170951,72.99151997,1.25,,,,,,,,,,,,,,,,,,,,,,,,,,,,,,,,,,,,,,,,,,,,,,,,,,,,,,,,,,,,,,,,,,,,,,,,
137,1729873799.0754342,8073,0,33.63657567170951,72.99151997,1.25,,,,,,,,,,,,,,,,,,,,,,,,,,,,,,,,,,,,,,,,,,,,,,,,,,,,,,,,,,,,,,,,,,,,,,,,
138,1729873799.075458,8074,0,33.63657567170951,72.99151997,1.25,,,,,,,,,,,,,,,,,,,,,,,,,,,,,,,,,,,,,,,,,,,,,,,,,,,,,,,,,,,,,,,,,,,,,,,,
139,1729873799,8075,0,33.63657567170951,72.99151997,1.25,,,,,,,,,,,,,,,,,,,,,,,,,,,,,,,,,,,,,,,,,,,,,,,,,,,,,,,,,,,,,,,,,,,,,,,,
140,1729873799.0756142,8076,0,33.63657567170951,72.99151997,1.25,,,,,,,,,,,,,,,,,,,,,,,,,,,,,,,,,,,,,,,,,,,,,,,,,,,,,,,,,,,,,,,,,,,,,,,,
141,1729873799.0756414,8077,0,33.63657567170951,72.99151997,1.25,,,,,,,,,,,,,,,,,,,,,,,,,,,,,,,,,,,,,,,,,,,,,,,,,,,,,,,,,,,,,,,,,,,,,,,,
142,1729873799.0756657,8078,0,33.63657567170951,72.99151997,1.25,,,,,,,,,,,,,,,,,,,,,,,,,,,,,,,,,,,,,,,,,,,,,,,,,,,,,,,,,,,,,,,,,,,,,,,,
143,1729873799.075793,8079,0,33.63657567170951,72.99151997,1.25,,,,,,,,,,,,,,,,,,,,,,,,,,,,,,,,,,,,,,,,,,,,,,,,,,,,,,,,,,,,,,,,,,,,,,,,
144,1729873799.075836,8080,0,33.63657567170951,72.99151997,1.25,1729873781.612578,8477,1729873781,0.2399999946355819,0.01,0,-0.01,1729873780.929371,8463,1729873780,-1.493818163,-13.55498976,-1.012,-0.017620509,0.009080775,-0.589221609,0,0,0,1729873780.9180448,8466,1729873780,-0.017697138,0.009235977,-0.589065834,-0.807838443,0.000106359,-0.000150727,-0.000372062,1729873781.4014647,8472,1729873781,1000,1000,1000,1000,0,1729873781.8032277,8476,1729873781,0.025557751,0.024280116,17,0,550.4099731445312,-0.00797964,1729873780,503.7233258690184,72.9915058,33.636519,13,,,,,,,,,,,,,,,,,,,,,
145,1729873799.0758617,8081,0,33.63657567170951,72.99151997,1.25,,,,,,,,,,,,,,,,,,,,,,,,,,,,,,,,,,,,,,,,,,,,,,,,,,,,,,,,,,,,,,,,,,,,,,,,
146,1729873799.076141,8082,0,33.63657567170951,72.99151997,1.25,,,,,,,,,,,,,,,,,,,,,,,,,,,,,,,,,,,,,,,,,,,,,,,,,,,,,,,,,,,,,,,,,,,,,,,,
147,1729873799.076165,8083,0,33.63657567170951,72.99151997,1.25,,,,,,,,,,,,,,,,,,,,,,,,,,,,,,,,,,,,,,,,,,,,,,,,,,,,,,,,,,,,,,,,,,,,,,,,
148,1729873799.0761936,8084,0,33.63657567170951,72.99151997,1.25,,,,,,,,,,,,,,,,,,,,,,,,,,,,,,,,,,,,,,,,,,,,,,,,,,,,,,,,,,,,,,,,,,,,,,,,
149,1729873799.0762165,8085,0,33.63657567170951,72.99151997,1.25,,,,,,,,,,,,,,,,,,,,,,,,,,,,,,,,,,,,,,,,,,,,,,,,,,,,,,,,,,,,,,,,,,,,,,,,
150,1729873799.076336,8086,0,33.63657567170951,72.99151997,1.25,,,,,,,,,,,,,,,,,,,,,,,,,,,,,,,,,,,,,,,,,,,,,,,,,,,,,,,,,,,,,,,,,,,,,,,,
151,1729873799.0763602,8087,0,33.63657567170951,72.99151997,1.25,,,,,,,,,,,,,,,,,,,,,,,,,,,,,,,,,,,,,,,,,,,,,,,,,,,,,,,,,,,,,,,,,,,,,,,,
152,1729873799.0763822,8088,0,33.63657567170951,72.99151997,1.25,,,,,,,,,,,,,,,,,,,,,,,,,,,,,,,,,,,,,,,,,,,,,,,,,,,,,,,,,,,,,,,,,,,,,,,,
153,1729873799.076734,8089,0,33.63657567170951,72.99151997,1.25,,,,,,,,,,,,,,,,,,,,,,,,,,,,,,,,,,,,,,,,,,,,,,,,,,,,,,,,,,,,,,,,,,,,,,,,
154,1729873799.0767612,8090,0,33.63657567170951,72.99151997,1.25,,,,,,,,,,,,,,,,,,,,,,,,,,,,,,,,,,,,,,,,,,,,,,,,,,,,,,,,,,,,,,,,,,,,,,,,
155,1729873799.0771372,8091,0,33.63657567170951,72.99151997,1.25,,,,,,,,,,,,,,,,,,,,,,,,,,,,,,,,,,,,,,,,,,,,,,,,,,,,1729873798.5150628,228,1729873798,33.6365764,72.9915199,551.5599975585938,1.5707963705062866,,,,,,,,,,,,,,
156,1729873799.0771737,8092,0,33.63657567170951,72.99151997,1.25,,,,,,,,,,,,,,,,,,,,,,,,,,,,,,,,,,,,,,,,,,,,,,,,,,,,,,,,,,,,,,,,,,,,,,,,
157,1729873799.0772035,8093,0,33.63657567170951,72.99151997,1.25,,,,,,,,,,,,,,,,,,,,,,,,,,,,,,,,,,,,,,,,,,,,,,,,,,,,,,,,,,,,,,,,,,,,,,,,
158,1729873799.0773413,8094,0,33.63657567170951,72.99151997,1.25,,,,,,,,,,,,,,,,,,,,,,,,,,,,,,,,,,,,,,,,,,,,,,,,,,,,,,,,,,,,,,,,,,,,,,,,
159,1729873799.077367,8095,0,33.63657567170951,72.99151997,1.25,,,,,,,,,,,,,,,,,,,,,,,,,,,,,,,,,,,,,,,,,,,,,,,,,,,,,,,,,,,,,,,,,,,,,,,,
160,1729873799.077392,8096,0,33.63657567170951,72.99151997,1.25,,,,,,,,,,,,,,,,,,,,,,,,,,,,,,,,,,,,,,,,,,,,,,,,,,,,,,,,,,,,,,,,,,,,,,,,
161,1729873799.077438,8097,0,33.63657567170951,72.99151997,1.25,,,,,,,,,,,,,,,,,,,,,,,,,,,,,,,,,,,,,,,,,,,,,,,,,,,,,,,,,,,,,,,,,,,,,,,,
162,1729873799.077466,8098,0,33.63657567170951,72.99151997,1.25,1729873781.7146318,8478,1729873781,0.2610000073909759,0.01,0,-0.01,1729873780.9294136,8464,1729873780,-1.493818165,-13.56608222,-1.018,-0.017657843,0.009160687,-0.589192025,0,-0.01,0,1729873780.9182537,8467,1729873780,-0.017702364,0.009244906,-0.58898371,-0.807898105,0.000510465,-0.000144368,0.000456268,1729873781.5026927,8473,1729873781,1000,1000,1000,1000,0,1729873781.9027898,8477,1729873781,0.02718409,0.025751939,17,0,550.4199829101562,-0.008707025,1729873780,503.7233248595235,72.9915057,33.6365189,13,,,,,,,,,,,,,,,,,,,,,
163,1729873799.077575,8099,0,33.63657567170951,72.99151997,1.25,,,,,,,,,,,,,,,,,,,,,,,,,,,,,,,,,,,,,,,,,,,,,,,,,,,,,,,,,,,,,,,,,,,,,,,,
164,1729873799.0777345,8100,0,33.63657567170951,72.99151997,1.25,,,,,,,,,,,,,,,,,,,,,,,,,,,,,,,,,,,,,,,,,,,,,,,,,,,,,,,,,,,,,,,,,,,,,,,,
165,1729873799.077765,8101,0,33.63657567170951,72.99151997,1.25,,,,,,,,,,,,,,,,,,,,,,,,,,,,,,,,,,,,,,,,,,,,,,,,,,,,,,,,,,,,,,,,,,,,,,,,
166,1729873799.0777955,8102,0,33.63657567170951,72.99151997,1.25,,,,,,,,,,,,,,,,,,,,,,,,,,,,,,,,,,,,,,,,,,,,,,,,,,,,,,,,,,,,,,,,,,,,,,,,
167,1729873799.0778213,8103,0,33.63657567170951,72.99151997,1.25,,,,,,,,,,,,,,,,,,,,,,,,,,,,,,,,,,,,,,,,,,,,,,,,,,,,,,,,,,,,,,,,,,,,,,,,
168,1729873799.077997,8104,0,33.63657567170951,72.99151997,1.25,,,,,,,,,,,,,,,,,,,,,,,,,,,,,,,,,,,,,,,,,,,,,,,,,,,,,,,,,,,,,,,,,,,,,,,,
169,1729873799.0780306,8105,0,33.63657567170951,72.99151997,1.25,,,,,,,,,,,,,,,,,,,,,,,,,,,,,,,,,,,,,,,,,,,,,,,,,,,,,,,,,,,1729873781.579218,1095,1,0,0,1,5,,,,,,,
170,1729873799.0780568,8106,0,33.63657567170951,72.99151997,1.25,,,,,,,,,,,,,,,,,,,,,,,,,,,,,,,,,,,,,,,,,,,,,,,,,,,,,,,,,,,,,,,,,,,,,,,,
171,1729873799.0781033,8107,0,33.63657567170951,72.99151997,1.25,,,,,,,,,,,,,,,,,,,,,,,,,,,,,,,,,,,,,,,,,,,,,,,,,,,,,,,,,,,,,,,,,,,,,,,,
172,1729873799.0781744,8108,0,33.63657567170951,72.99151997,1.25,,,,,,,,,,,,,,,,,,,,,,,,,,,,,,,,,,,,,,,,,,,,,,,,,,,,,,,,,,,,,,,,,,,,,,,,
173,1729873799.0781977,8109,0,33.63657567170951,72.99151997,1.25,,,,,,,,,,,,,,,,,,,,,,,,,,,,,,,,,,,,,,,,,,,,,,,,,,,,,,,,,,,,,,,,,,,,,,,1729873789.926413,5.5
174,1729873799.078328,8110,0,33.63657567170951,72.99151997,1.25,,,,,,,,,,,,,,,,,,,,,,,,,,,,,,,,,,,,,,,,,,,,,,,,,,,,,,,,,,,,,,,,,,,,,,,,
175,1729873799.0783625,8111,0,33.63657567170951,72.99151997,1.25,,,,,,,,,,,,,,,,,,,,,,,,,,,,,,,,,,,,,,,,,,,,,,,,,,,,,,,,,,,,,,,,,,,,,,,,
176,1729873799.078388,8112,0,33.63657567170951,72.99151997,1.25,,,,,,,,,,,,,,,,,,,,,,,,,,,,,,,,,,,,,,,,,,,,,,,,,,,,,,,,,,,,,,,,,,,,,,,,
177,1729873799.078506,8113,0,33.63657567170951,72.99151997,1.25,,,,,,,,,,,,,,,,,,,,,,,,,,,,,,,,,,,,,,,,,,,,,,,,,,,,,,,,,,,,,,,,,,,,,,,,
178,1729873799.0785315,8114,0,33.63657567170951,72.99151997,1.25,,,,,,,,,,,,,,,,,,,,,,,,,,,,,,,,,,,,,,,,,,,,,,,,,,,,,,,,,,,,,,,,,,,,,,,,
179,1729873799.078651,8115,0,33.63657567170951,72.99151997,1.25,,,,,,,,,,,,,,,,,,,,,,,,,,,,,,,,,,,,,,,,,,,,,,,,,,,,,,,,,,,,,,,,,,,,,,,,
180,1729873799.0786998,8116,0,33.63657567170951,72.99151997,1.25,1729873781.8154469,8479,1729873781,0.3050000071525574,0.01,0,-0.01,1729873780.929628,8465,1729873780,-1.503096539,-13.57717466,-1.023,-0.01768689,0.009204613,-0.589140936,0,-0.01,0,1729873780.9993565,8468,1729873780,-0.017684784,0.009235229,-0.588905999,-0.807955248,-0.000243707,-0.000808099,-2.63E-05,1729873781.6026094,8474,1729873781,1000,1000,1000,1000,0,1729873782.003201,8478,1729873782,0.027701184,0.026455157,17,0,550.4199829101562,-0.008214635,1729873780,503.72332424700176,72.9915057,33.6365188,13,,,,,,,,,,,,,,,,,,,,,
181,1729873799.0787525,8117,0,33.63657567170951,72.99151997,1.25,,,,,,,,,,,,,,,,,,,,,,,,,,,,,,,,,,,,,,,,,,,,,,,,,,,,,,,,,,,,,,,,,,,,,,,,
182,1729873799.078776,8118,0,33.63657567170951,72.99151997,1.25,,,,,,,,,,,,,,,,,,,,,,,,,,,,,,,,,,,,,,,,,,,,,,,,,,,,,,,,,,,,,,,,,,,,,,,,
183,1729873799.0788112,8119,0,33.63657567170951,72.99151997,1.25,,,,,,,,,,,,,,,,,,,,,,,,,,,,,,,,,,,,,,,,,,,,,,,,,,,,,,,,,,,,,,,,,,,,,,,,
184,1729873799.0789323,8120,0,33.63657567170951,72.99151997,1.25,,,,,,,,,,,,,,,,,,,,,,,,,,,,,,,,,,,,,,,,,,,,,,,,,,,,,,,,,,,,,,,,,,,,,,,,
185,1729873799.0789587,8121,0,33.63657567170951,72.99151997,1.25,,,,,,,,,,,,,,,,,,,,,,,,,,,,,,,,,,,,,,,,,,,,,,,,,,,,,,,,,,,,,,,,,,,,,,,,
186,1729873799.0791135,8122,0,33.63657567170951,72.99151997,1.25,,,,,,,,,,,,,,,,,,,,,,,,,,,,,,,,,,,,,,,,,,,,,,,,,,,,1729873798.6145847,229,1729873798,33.6365765,72.9915195,551.5599975585938,1.5707963705062866,,,,,,,,,,,,,,
187,1729873799.079139,8123,0,33.63657567170951,72.99151997,1.25,,,,,,,,,,,,,,,,,,,,,,,,,,,,,,,,,,,,,,,,,,,,,,,,,,,,,,,,,,,,,,,,,,,,,,,,
188,1729873799.0792923,8124,0,33.63657567170951,72.99151997,1.25,,,,,,,,,,,,,,,,,,,,,,,,,,,,,,,,,,,,,,,,,,,,,,,,,,,,,,,,,,,,,,,,,,,,,,,,
189,1729873799.0793371,8125,0,33.63657567170951,72.99151997,1.25,,,,,,,,,,,,,,,,,,,,,,,,,,,,,,,,,,,,,,,,,,,,,,,,,,,,,,,,,,,,,,,,,,,,,,,,
190,1729873799.0793655,8126,0,33.63657567170951,72.99151997,1.25,,,,,,,,,,,,,,,,,,,,,,,,,,,,,,,,,,,,,,,,,,,,,,,,,,,,,,,,,,,,,,,,,,,,,,,,
191,1729873799.079557,8127,0,33.63657567170951,72.99151997,1.25,,,,,,,,,,,,,,,,,,,,,,,,,,,,,,,,,,,,,,,,,,,,,,,,,,,,,,,,,,,,,,,,,,,,,,,,
192,1729873799.0795846,8128,0,33.63657567170951,72.99151997,1.25,,,,,,,,,,,,,,,,,,,,,,,,,,,,,,,,,,,,,,,,,,,,,,,,,,,,,,,,,,,,,,,,,,,,,,,,
193,1729873799.0797307,8129,0,33.63657567170951,72.99151997,1.25,,,,,,,,,,,,,,,,,,,,,,,,,,,,,,,,,,,,,,,,,,,,,,,,,,,,,,,,,,,,,,,,,,,,,,,,
194,1729873799.0797606,8130,0,33.63657567170951,72.99151997,1.25,,,,,,,,,,,,,,,,,,,,,,,,,,,,,,,,,,,,,,,,,,,,,,,,,,,,,,,,,,,,,,,,,,,,,,,,
195,1729873799.0799334,8131,0,33.63657567170951,72.99151997,1.25,,,,,,,,,,,,,,,,,,,,,,,,,,,,,,,,,,,,,,,,,,,,,,,,,,,,,,,,,,,,,,,,,,,,,,,,
196,1729873799.0800774,8132,0,33.63657567170951,72.99151997,1.25,,,,,,,,,,,,,,,,,,,,,,,,,,,,,,,,,,,,,,,,,,,,,,,,,,,,,,,,,,,,,,,,,,,,,,,,
197,1729873799.0802472,8133,0,33.63657567170951,72.99151997,1.25,,,,,,,,,,,,,,,,,,,,,,,,,,,,,,,,,,,,,,,,,,,,,,,,,,,,,,,,,,,,,,,,,,,,,,,,
198,1729873799.0802815,8134,0,33.63657567170951,72.99151997,1.25,1729873781.9148476,8480,1729873781,0.277999997,0.01,0,-0.01,1729873780.9301596,8466,1729873780,-1.512374915,-13.59935959,-1.026,-0.017697138,0.009235977,-0.589065834,0,-0.02,0,1729873781.0992815,8469,1729873781,-0.017669507,0.009185873,-0.588816412,-0.808021436,0.000707507,0.00041192,-0.000338812,1729873781.7030933,8475,1729873781,1000,1000,1000,1000,0,1729873782.103768,8479,1729873782,0.028180767,0.026631504,17,0,550.4099731445312,-0.009215131,1729873780,503.7133232375072,72.9915056,33.6365187,13,,,,,,,,,,,,,,,,,,,,,
199,1729873799.0803251,8135,0,33.63657567170951,72.99151997,1.25,,,,,,,,,,,,,,,,,,,,,,,,,,,,,,,,,,,,,,,,,,,,,,,,,,,,,,,,,,,,,,,,,,,,,,,,
200,1729873799,8136,0,33.63657567170951,72.99151997,1.25,,,,,,,,,,,,,,,,,,,,,,,,,,,,,,,,,,,,,,,,,,,,,,,,,,,,,,,,,,,,,,,,,,,,,,,,
201,1729873799.0803738,8137,0,33.63657567170951,72.99151997,1.25,,,,,,,,,,,,,,,,,,,,,,,,,,,,,,,,,,,,,,,,,,,,,,,,,,,,,,,,,,,,,,,,,,,,,,,,
202,1729873799.0804205,8138,0,33.63657567170951,72.99151997,1.25,,,,,,,,,,,,,,,,,,,,,,,,,,,,,,,,,,,,,,,,,,,,,,,,,,,,,,,,,,,,,,,,,,,,,,,,
203,1729873799.0805542,8139,0,33.63657567170951,72.99151997,1.25,,,,,,,,,,,,,,,,,,,,,,,,,,,,,,,,,,,,,,,,,,,,,,,,,,,,,,,,,,,,,,,,,,,,,,,,
204,1729873799.0806482,8140,0,33.63657567170951,72.99151997,1.25,,,,,,,,,,,,,,,,,,,,,,,,,,,,,,,,,,,,,,,,,,,,,,,,,,,,,,,,,,,,,,,,,,,,,,,,
205,1729873799.0807066,8141,0,33.63657567170951,72.99151997,1.25,,,,,,,,,,,,,,,,,,,,,,,,,,,,,,,,,,,,,,,,,,,,,,,,,,,,,,,,,,,,,,,,,,,,,,,,
206,1729873799.080848,8142,0,33.63657567170951,72.99151997,1.25,,,,,,,,,,,,,,,,,,,,,,,,,,,,,,,,,,,,,,,,,,,,,,,,,,,,,,,,,,,,,,,,,,,,,,,,
207,1729873799.081011,8143,0,33.63657567170951,72.99151997,1.25,,,,,,,,,,,,,,,,,,,,,,,,,,,,,,,,,,,,,,,,,,,,,,,,,,,,,,,,,,,,,,,,,,,,,,,,
208,1729873799.0810385,8144,0,33.63657567170951,72.99151997,1.25,,,,,,,,,,,,,,,,,,,,,,,,,,,,,,,,,,,,,,,,,,,,,,,,,,,,,,,,,,,,,,,,,,,,,,,,
209,1729873799.0810645,8145,0,33.63657567170951,72.99151997,1.25,,,,,,,,,,,,,,,,,,,,,,,,,,,,,,,,,,,,,,,,,,,,,,,,,,,,,,,,,,,,,,,,,,,,,,,,
210,1729873799.0812798,8146,0,33.63657567170951,72.99151997,1.25,,,,,,,,,,,,,,,,,,,,,,,,,,,,,,,,,,,,,,,,,,,,,,,,,,,,,,,,,,,,,,,,,,,,,,,,
211,1729873799.0813165,8147,0,33.63657567170951,72.99151997,1.25,,,,,,,,,,,,,,,,,,,,,,,,,,,,,,,,,,,,,,,,,,,,,,,,,,,,,,,,,,,,,,,,,,,,,,,,
212,1729873799.0813663,8148,0,33.63657567170951,72.99151997,1.25,,,,,,,,,,,,,,,,,,,,,,,,,,,,,,,,,,,,,,,,,,,,,,,,,,,,,,,,,,,,,,,,,,,,,,,,
213,1729873799.081401,8149,0,33.63657567170951,72.99151997,1.25,,,,,,,,,,,,,,,,,,,,,,,,,,,,,,,,,,,,,,,,,,,,,,,,,,,,,,,,,,,,,,,,,,,,,,,,
214,1729873799.0814238,8150,0,33.63657567170951,72.99151997,1.25,,,,,,,,,,,,,,,,,,,,,,,,,,,,,,,,,,,,,,,,,,,,,,,,,,,,,,,,,,,,,,,,,,,,,,,,
215,1729873799.0814505,8151,0,33.63657567170951,72.99151997,1.25,,,,,,,,,,,,,,,,,,,,,,,,,,,,,,,,,,,,,,,,,,,,,,,,,,,,,,,,,,,,,,,,,,,,,,,,
216,1729873799.081559,8152,0,33.63657567170951,72.99151997,1.25,1729873782.0158453,8481,1729873782,0.2520000040531158,0.01,0,-0.01,1729873780.930266,8467,1729873780,-1.512374915,-13.59935959,-1.028,-0.017702364,0.009244906,-0.58898371,0,-0.02,0,1729873781.1993103,8470,1729873781,-0.017627513,0.009176265,-0.588741011,-0.808077403,-0.0001591,-0.000574877,0.000299265,1729873781.8032691,8476,1729873781,1000,1000,1000,1000,0,1729873782.2064364,8480,1729873782,0.028968662,0.027037598,17,0,550.3999633789062,-0.010399597,1729873780,503.71332161549145,72.9915055,33.6365185,13,,,,,,,,,,,,,,,,,,,,,
217,1729873799.0816174,8153,0,33.63657567170951,72.99151997,1.25,,,,,,,,,,,,,,,,,,,,,,,,,,,,,,,,,,,,,,,,,,,,,,,,,,,,1729873798.7143705,230,1729873798,33.6365765,72.9915195,551.5599975585938,1.5707963705062866,,,,,,,,,,,,,,
218,1729873799.0824845,8154,0,33.63657567170951,72.99151997,1.25,,,,,,,,,,,,,,,,,,,,,,,,,,,,,,,,,,,,,,,,,,,,,,,,,,,,,,,,,,,,,,,,,,,,,,,,
219,1729873799.0828905,8155,0,33.63657567170951,72.99151997,1.25,,,,,,,,,,,,,,,,,,,,,,,,,,,,,,,,,,,,,,,,,,,,,,,,,,,,,,,,,,,,,,,,,,,,,,,,
220,1729873799.0829434,8156,0,33.63657567170951,72.99151997,1.25,,,,,,,,,,,,,,,,,,,,,,,,,,,,,,,,,,,,,,,,,,,,,,,,,,,,,,,,,,,,,,,,,,,,,,,,
221,1729873799.0829804,8157,0,33.63657567170951,72.99151997,1.25,,,,,,,,,,,,,,,,,,,,,,,,,,,,,,,,,,,,,,,,,,,,,,,,,,,,,,,,,,,,,,,,,,,,,,,,
222,1729873799.0830932,8158,0,33.63657567170951,72.99151997,1.25,,,,,,,,,,,,,,,,,,,,,,,,,,,,,,,,,,,,,,,,,,,,,,,,,,,,,,,,,,,,,,,,,,,,,,,,
223,1729873799.0831203,8159,0,33.63657567170951,72.99151997,1.25,,,,,,,,,,,,,,,,,,,,,,,,,,,,,,,,,,,,,,,,,,,,,,,,,,,,,,,,,,,,,,,,,,,,,,,,
224,1729873799.083251,8160,0,33.63657567170951,72.99151997,1.25,,,,,,,,,,,,,,,,,,,,,,,,,,,,,,,,,,,,,,,,,,,,,,,,,,,,,,,,,,,,,,,,,,,,,,,,
225,1729873799.083282,8161,0,33.63657567170951,72.99151997,1.25,,,,,,,,,,,,,,,,,,,,,,,,,,,,,,,,,,,,,,,,,,,,,,,,,,,,,,,,,,,,,,,,,,,,,,,,
226,1729873799.0833242,8163,0,33.63657567170951,72.99151997,1.25,,,,,,,,,,,,,,,,,,,,,,,,,,,,,,,,,,,,,,,,,,,,,,,,,,,,,,,,,,,,,,,,,,,,,,,,
227,1729873799.0833597,8164,0,33.63657567170951,72.99151997,1.25,,,,,,,,,,,,,,,,,,,,,,,,,,,,,,,,,,,,,,,,,,,,,,,,,,,,,,,,,,,,,,,,,,,,,,,,
228,1729873799.083383,8165,0,33.63657567170951,72.99151997,1.25,,,,,,,,,,,,,,,,,,,,,,,,,,,,,,,,,,,,,,,,,,,,,,,,,,,,,,,,,,,,,,,,,,,,,,,,
229,1729873799,8166,0,33.63657567170951,72.99151997,1.25,,,,,,,,,,,,,,,,,,,,,,,,,,,,,,,,,,,,,,,,,,,,,,,,,,,,,,,,,,,,,,,,,,,,,,,,
230,1729873799.0835774,8167,0,33.63657567170951,72.99151997,1.25,,,,,,,,,,,,,,,,,,,,,,,,,,,,,,,,,,,,,,,,,,,,,,,,,,,,,,,,,,,,,,,,,,,,,,,,
231,1729873799.0835998,8168,0,33.63657567170951,72.99151997,1.25,,,,,,,,,,,,,,,,,,,,,,,,,,,,,,,,,,,,,,,,,,,,,,,,,,,,,,,,,,,,,,,,,,,,,,,,
232,1729873799.0837927,8169,0,33.63657567170951,72.99151997,1.25,,,,,,,,,,,,,,,,,,,,,,,,,,,,,,,,,,,,,,,,,,,,,,,,,,,,,,,,,,,,,,,,,,,,,,,,
233,1729873799.083908,8170,0,33.63657567170951,72.99151997,1.25,,,,,,,,,,,,,,,,,,,,,,,,,,,,,,,,,,,,,,,,,,,,,,,,,,,,,,,,,,,,,,,,,,,,,,,,
234,1729873799.0841572,8171,0,33.63657567170951,72.99151997,1.25,1729873782.1146405,8482,1729873782,0.2730000019073486,0.01,0,-0.01,1729873780.999595,8468,1729873780,-1.512374914,-13.61045203,-1.031,-0.017684784,0.009235229,-0.588905999,0,-0.02,0,1729873781.2994096,8471,1729873781,-0.017595099,0.00918325,-0.588668014,-0.808131208,-0.000360774,-0.000382572,-0.000327391,1729873781.9030426,8477,1729873781,1000,1000,1000,1000,0,1729873782.302945,8481,1729873782,0.030108482,0.027716875,17,0,550.3900146484375,-0.011759912,1729873780,503.71332161549145,72.9915055,33.6365185,13,,,,,,,,,,,,,,,,,,,,,
235,1729873799.0843427,8172,0,33.63657567170951,72.99151997,1.25,,,,,,,,,,,,,,,,,,,,,,,,,,,,,,,,,,,,,,,,,,,,,,,,,,,,,,,,,,,,,,,,,,,,,,,,
236,1729873799.0843751,8173,0,33.63657567170951,72.99151997,1.25,,,,,,,,,,,,,,,,,,,,,,,,,,,,,,,,,,,,,,,,,,,,,,,,,,,,,,,,,,,,,,,,,,,,,,,,
237,1729873799,8174,0,33.63657567170951,72.99151997,1.25,,,,,,,,,,,,,,,,,,,,,,,,,,,,,,,,,,,,,,,,,,,,,,,,,,,,,,,,,,,,,,,,,,,,,,,,
238,1729873799.0844512,8175,0,33.63657567170951,72.99151997,1.25,,,,,,,,,,,,,,,,,,,,,,,,,,,,,,,,,,,,,,,,,,,,,,,,,,,,,,,,,,,,,,,,,,,,,,,,
239,1729873799.0845084,8176,0,33.63657567170951,72.99151997,1.25,,,,,,,,,,,,,,,,,,,,,,,,,,,,,,,,,,,,,,,,,,,,,,,,,,,,,,,,,,,,,,,,,,,,,,,,
240,1729873799,8177,0,33.63657567170951,72.99151997,1.25,,,,,,,,,,,,,,,,,,,,,,,,,,,,,,,,,,,,,,,,,,,,,,,,,,,,,,,,,,,,,,,,,,,,,,,,
241,1729873799.0863452,8178,0,33.63657567170951,72.99151997,1.25,,,,,,,,,,,,,,,,,,,,,,,,,,,,,,,,,,,,,,,,,,,,,,,,,,,,,,,,,,,,,,,,,,,,,,,,
242,1729873799.0864837,8179,0,33.63657567170951,72.99151997,1.25,,,,,,,,,,,,,,,,,,,,,,,,,,,,,,,,,,,,,,,,,,,,,,,,,,,,,,,,,,,,,,,,,,,,,,,,
243,1729873799.0865135,8180,0,33.63657567170951,72.99151997,1.25,,,,,,,,,,,,,,,,,,,,,,,,,,,,,,,,,,,,,,,,,,,,,,,,,,,,,,,,,,,,,,,,,,,,,,,,
244,1729873799.0866363,8181,0,33.63657567170951,72.99151997,1.25,,,,,,,,,,,,,,,,,,,,,,,,,,,,,,,,,,,,,,,,,,,,,,,,,,,,,,,,,,,,,,,,,,,,,,,,
245,1729873799.0866644,8182,0,33.63657567170951,72.99151997,1.25,,,,,,,,,,,,,,,,,,,,,,,,,,,,,,,,,,,,,,,,,,,,,,,,,,,,,,,,,,,,,,,,,,,,,,,,
246,1729873799.0867012,8183,0,33.63657567170951,72.99151997,1.25,,,,,,,,,,,,,,,,,,,,,,,,,,,,,,,,,,,,,,,,,,,,,,,,,,,,,,,,,,,,,,,,,,,,,,,,
247,1729873799.0867248,8184,0,33.63657567170951,72.99151997,1.25,,,,,,,,,,,,,,,,,,,,,,,,,,,,,,,,,,,,,,,,,,,,,,,,,,,,,,,,,,,,,,,,,,,,,,,,
248,1729873799.086837,8185,0,33.63657567170951,72.99151997,1.25,,,,,,,,,,,,,,,,,,,,,,,,,,,,,,,,,,,,,,,,,,,,,,,,,,,,1729873798.8137288,231,1729873798,33.636576,72.9915199,551.5599975585938,1.5707963705062866,,,,,,,,,,,,,,
249,1729873799.0868878,8186,0,33.63657567170951,72.99151997,1.25,,,,,,,,,,,,,,,,,,,,,,,,,,,,,,,,,,,,,,,,,,,,,,,,,,,,,,,,,,,,,,,,,,,,,,,,
250,1729873799.0869164,8187,0,33.63657567170951,72.99151997,1.25,,,,,,,,,,,,,,,,,,,,,,,,,,,,,,,,,,,,,,,,,,,,,,,,,,,,,,,,,,,,,,,,,,,,,,,,
251,1729873799.0872035,8188,0,33.63657567170951,72.99151997,1.25,,,,,,,,,,,,,,,,,,,,,,,,,,,,,,,,,,,,,,,,,,,,,,,,,,,,,,,,,,,,,,,,,,,,,,,,
252,1729873799.0873642,8189,0,33.63657567170951,72.99151997,1.25,1729873782.2145998,8483,1729873782,0.2770000100135803,0.01,0,-0.01,1729873781.0995889,8469,1729873781,-1.512374914,-13.61045203,-1.039,-0.017669507,0.009185873,-0.588816412,0,-0.02,0,1729873781.3995438,8472,1729873781,-0.017586782,0.009187766,-0.588638291,-0.808152988,-0.000995383,0.001515555,-0.000819182,1729873782.0055327,8478,1729873782,1000,1000,1000,1000,0,1729873782.4038649,8482,1729873782,0.031866141,0.029268051,17,0,550.3900146484375,-0.012602861,1729873780,503.7033210029701,72.9915055,33.6365184,13,,,,,,,,,,,,,,,,,,,,,
253,1729873799.0873964,8190,0,33.63657567170951,72.99151997,1.25,,,,,,,,,,,,,,,,,,,,,,,,,,,,,,,,,,,,,,,,,,,,,,,,,,,,,,,,,,,,,,,,,,,,,,,,
254,1729873799.087509,8191,0,33.63657567170951,72.99151997,1.25,,,,,,,,,,,,,,,,,,,,,,,,,,,,,,,,,,,,,,,,,,,,,,,,,,,,,,,,,,,,,,,,,,,,,,,,
255,1729873799.0875528,8192,0,33.63657567170951,72.99151997,1.25,,,,,,,,,,,,,,,,,,,,,,,,,,,,,,,,,,,,,,,,,,,,,,,,,,,,,,,,,,,,,,,,,,,,,,,,
256,1729873799.087978,8193,0,33.63657567170951,72.99151997,1.25,,,,,,,,,,,,,,,,,,,,,,,,,,,,,,,,,,,,,,,,,,,,,,,,,,,,,,,,,,,,,,,,,,,,,,,,
257,1729873799.0880065,8194,0,33.63657567170951,72.99151997,1.25,,,,,,,,,,,,,,,,,,,,,,,,,,,,,,,,,,,,,,,,,,,,,,,,,,,,,,,,,,,,,,,,,,,,,,,,
258,1729873799.0880272,8195,0,33.63657567170951,72.99151997,1.25,,,,,,,,,,,,,,,,,,,,,,,,,,,,,,,,,,,,,,,,,,,,,,,,,,,,,,,,,,,,,,,,,,,,,,,,
259,1729873799.0888383,8196,0,33.63657567170951,72.99151997,1.25,,,,,,,,,,,,,,,,,,,,,,,,,,,,,,,,,,,,,,,,,,,,,,,,,,,,,,,,,,,,,,,,,,,,,,,,
260,1729873799.088873,8197,0,33.63657567170951,72.99151997,1.25,,,,,,,,,,,,,,,,,,,,,,,,,,,,,,,,,,,,,,,,,,,,,,,,,,,,,,,,,,,,,,,,,,,,,,,,
261,1729873799.0888946,8198,0,33.63657567170951,72.99151997,1.25,,,,,,,,,,,,,,,,,,,,,,,,,,,,,,,,,,,,,,,,,,,,,,,,,,,,,,,,,,,,,,,,,,,,,,,,
262,1729873799.0893266,8199,0,33.63657567170951,72.99151997,1.25,,,,,,,,,,,,,,,,,,,,,,,,,,,,,,,,,,,,,,,,,,,,,,,,,,,,,,,,,,,,,,,,,,,,,,,,
263,1729873799.0895214,8200,0,33.63657567170951,72.99151997,1.25,,,,,,,,,,,,,,,,,,,,,,,,,,,,,,,,,,,,,,,,,,,,,,,,,,,,,,,,,,,,,,,,,,,,,,,,
264,1729873799.0895486,8201,0,33.63657567170951,72.99151997,1.25,,,,,,,,,,,,,,,,,,,,,,,,,,,,,,,,,,,,,,,,,,,,,,,,,,,,,,,,,,,,,,,,,,,,,,,,
265,1729873799.0895703,8202,0,33.63657567170951,72.99151997,1.25,,,,,,,,,,,,,,,,,,,,,,,,,,,,,,,,,,,,,,,,,,,,,,,,,,,,,,,,,,,,,,,,,,,,,,,,
266,1729873799.0897114,8203,0,33.63657567170951,72.99151997,1.25,,,,,,,,,,,,,,,,,,,,,,,,,,,,,,,,,,,,,,,,,,,,,,,,,,,,,,,,,,,,,,,,,,,,,,,,
267,1729873799.0897598,8204,0,33.63657567170951,72.99151997,1.25,,,,,,,,,,,,,,,,,,,,,,,,,,,,,,,,,,,,,,,,,,,,,,,,,,,,,,,,,,,,,,,,,,,,,,,,
268,1729873799.089784,8205,0,33.63657567170951,72.99151997,1.25,,,,,,,,,,,,,,,,,,,,,,,,,,,,,,,,,,,,,,,,,,,,,,,,,,,,,,,,,,,,,,,,,,,,,,,,
269,1729873799.0898905,8206,0,33.63657567170951,72.99151997,1.25,,,,,,,,,,,,,,,,,,,,,,,,,,,,,,,,,,,,,,,,,,,,,,,,,,,,,,,,,,,,,,,,,,,,,,,,
270,1729873799.089933,8207,0,33.63657567170951,72.99151997,1.25,1729873782.3148153,8484,1729873782,0.2860000133514404,0.01,0,-0.01,1729873781.199563,8470,1729873781,-1.512374914,-13.62154447,-1.044,-0.017627513,0.009176265,-0.588741011,0,-0.02,0,1729873781.4993258,8473,1729873781,-0.017572349,0.009189385,-0.58860385,-0.808178369,0.000123806,-4.51E-05,5.6483317166566856e-05,1729873782.103738,8479,1729873782,1000,1000,1000,1000,0,1729873782.5034578,8483,1729873782,0.033270683,0.030494889,17,0,550.3900146484375,-0.013304134,1729873781,503.7033210029701,72.9915055,33.6365184,13,,,,,,,,,,,,,,,,,,,,,
271,1729873799.089956,8208,0,33.63657567170951,72.99151997,1.25,,,,,,,,,,,,,,,,,,,,,,,,,,,,,,,,,,,,,,,,,,,,,,,,,,,,,,,,,,,,,,,,,,,,,,,,
272,1729873799.0900824,8209,0,33.63657567170951,72.99151997,1.25,,,,,,,,,,,,,,,,,,,,,,,,,,,,,,,,,,,,,,,,,,,,,,,,,,,,,,,,,,,,,,,,,,,,,,,,
273,1729873799.0908942,8210,0,33.63657567170951,72.99151997,1.25,,,,,,,,,,,,,,,,,,,,,,,,,,,,,,,,,,,,,,,,,,,,,,,,,,,,,,,,,,,,,,,,,,,,,,,,
274,1729873799,8211,0,33.63657567170951,72.99151997,1.25,,,,,,,,,,,,,,,,,,,,,,,,,,,,,,,,,,,,,,,,,,,,,,,,,,,,,,,,,,,,,,,,,,,,,,,,
275,1729873799.090944,8212,0,33.63657567170951,72.99151997,1.25,,,,,,,,,,,,,,,,,,,,,,,,,,,,,,,,,,,,,,,,,,,,,,,,,,,,,,,,,,,,,,,,,,,,,,,,
276,1729873799.0915086,8213,0,33.63657567170951,72.99151997,1.25,,,,,,,,,,,,,,,,,,,,,,,,,,,,,,,,,,,,,,,,,,,,,,,,,,,,,,,,,,,,,,,,,,,,,,,,
277,1729873799.0915475,8214,0,33.63657567170951,72.99151997,1.25,,,,,,,,,,,,,,,,,,,,,,,,,,,,,,,,,,,,,,,,,,,,,,,,,,,,,,,,,,,,,,,,,,,,,,,,
278,1729873799.091695,8215,0,33.63657567170951,72.99151997,1.25,,,,,,,,,,,,,,,,,,,,,,,,,,,,,,,,,,,,,,,,,,,,,,,,,,,,,,,,,,,,,,,,,,,,,,,,
279,1729873799.0917225,8216,0,33.63657567170951,72.99151997,1.25,,,,,,,,,,,,,,,,,,,,,,,,,,,,,,,,,,,,,,,,,,,,,,,,,,,,1729873798.9477134,232,1729873798,33.6365758,72.9915199,551.5599975585938,1.5707963705062866,,,,,,,,,,,,,,
280,1729873799.091745,8217,0,33.63657567170951,72.99151997,1.25,,,,,,,,,,,,,,,,,,,,,,,,,,,,,,,,,,,,,,,,,,,,,,,,,,,,,,,,,,,,,,,,,,,,,,,,
281,1729873799.091878,8218,0,33.63657567170951,72.99151997,1.25,,,,,,,,,,,,,,,,,,,,,,,,,,,,,,,,,,,,,,,,,,,,,,,,,,,,,,,,,,,,,,,,,,,,,,,,
282,1729873799.0919063,8219,0,33.63657567170951,72.99151997,1.25,,,,,,,,,,,,,,,,,,,,,,,,,,,,,,,,,,,,,,,,,,,,,,,,,,,,,,,,,,,,,,,,,,,,,,,,
283,1729873799.092506,8220,0,33.63657567170951,72.99151997,1.25,,,,,,,,,,,,,,,,,,,,,,,,,,,,,,,,,,,,,,,,,,,,,,,,,,,,,,,,,,,,,,,,,,,,,,,,
284,1729873799.0925324,8221,0,33.63657567170951,72.99151997,1.25,,,,,,,,,,,,,,,,,,,,,,,,,,,,,,,,,,,,,,,,,,,,,,,,,,,,,,,,,,,,,,,,,,,,,,,,
285,1729873799.092554,8222,0,33.63657567170951,72.99151997,1.25,,,,,,,,,,,,,,,,,,,,,,,,,,,,,,,,,,,,,,,,,,,,,,,,,,,,,,,,,,,,,,,,,,,,,,,,
286,1729873799.0925791,8223,0,33.63657567170951,72.99151997,1.25,,,,,,,,,,,,,,,,,,,,,,,,,,,,,,,,,,,,,,,,,,,,,,,,,,,,,,,,,,,,,,,,,,,,,,,,
287,1729873799.0926042,8224,0,33.63657567170951,72.99151997,1.25,,,,,,,,,,,,,,,,,,,,,,,,,,,,,,,,,,,,,,,,,,,,,,,,,,,,,,,,,,,,,,,,,,,,,,,,
288,1729873799.093117,8225,0,33.63657567170951,72.99151997,1.25,1729873782.4165647,8485,1729873782,0.2820000052452087,0.01,0,-0.01,1729873781.2995896,8471,1729873781,-1.521653288,-13.62154447,-1.048,-0.017595099,0.00918325,-0.588668014,0,-0.02,0,1729873781.5996313,8474,1729873781,-0.017571311,0.009195438,-0.588546098,-0.80822038,0.000134224,0.000151826,-0.000534719,1729873782.2064054,8480,1729873782,1000,1000,1000,1000,0,1729873782.6035838,8484,1729873782,0.034262396,0.032503638,17,0,550.3900146484375,-0.0108363,1729873781,503.69332039044895,72.9915055,33.6365183,13,,,,,,,,,,,,,,,,,,,,,
289,1729873799.0932822,8226,0,33.63657567170951,72.99151997,1.25,,,,,,,,,,,,,,,,,,,,,,,,,,,,,,,,,,,,,,,,,,,,,,,,,,,,,,,,,,,,,,,,,,,,,,,,
290,1729873799.0933118,8227,0,33.63657567170951,72.99151997,1.25,,,,,,,,,,,,,,,,,,,,,,,,,,,,,,,,,,,,,,,,,,,,,,,,,,,,,,,,,,,,,,,,,,,,,,,,
291,1729873799.0933385,8228,0,33.63657567170951,72.99151997,1.25,,,,,,,,,,,,,,,,,,,,,,,,,,,,,,,,,,,,,,,,,,,,,,,,,,,,,,,,,,,,,,,,,,,,,,,,
292,1729873799.093362,8229,0,33.63657567170951,72.99151997,1.25,,,,,,,,,,,,,,,,,,,,,,,,,,,,,,,,,,,,,,,,,,,,,,,,,,,,,,,,,,,,,,,,,,,,,,,,
293,1729873799.0934298,8230,0,33.63657567170951,72.99151997,1.25,,,,,,,,,,,,,,,,,,,,,,,,,,,,,,,,,,,,,,,,,,,,,,,,,,,,,,,,,,,,,,,,,,,,,,,,
294,1729873799.093555,8231,0,33.63657567170951,72.99151997,1.25,,,,,,,,,,,,,,,,,,,,,,,,,,,,,,,,,,,,,,,,,,,,,,,,,,,,,,,,,,,,,,,,,,,,,,,,
295,1729873799.093587,8232,0,33.63657567170951,72.99151997,1.25,,,,,,,,,,,,,,,,,,,,,,,,,,,,,,,,,,,,,,,,,,,,,,,,,,,,,,,,,,,,,,,,,,,,,,,,
296,1729873799.0937445,8233,0,33.63657567170951,72.99151997,1.25,,,,,,,,,,,,,,,,,,,,,,,,,,,,,,,,,,,,,,,,,,,,,,,,,,,,,,,,,,,,,,,,,,,,,,,,
297,1729873799.0937707,8234,0,33.63657567170951,72.99151997,1.25,,,,,,,,,,,,,,,,,,,,,,,,,,,,,,,,,,,,,,,,,,,,,,,,,,,,,,,,,,,,,,,,,,,,,,,,
298,1729873799,8235,0,33.63657567170951,72.99151997,1.25,,,,,,,,,,,,,,,,,,,,,,,,,,,,,,,,,,,,,,,,,,,,,,,,,,,,,,,,,,,,,,,,,,,,,,,,
299,1729873799.094171,8236,0,33.63657567170951,72.99151997,1.25,,,,,,,,,,,,,,,,,,,,,,,,,,,,,,,,,,,,,,,,,,,,,,,,,,,,,,,,,,,,,,,,,,,,,,,,
300,1729873799,8237,0,33.63657567170951,72.99151997,1.25,,,,,,,,,,,,,,,,,,,,,,,,,,,,,,,,,,,,,,,,,,,,,,,,,,,,,,,,,,,,,,,,,,,,,,,,
301,1729873799.0942366,8238,0,33.63657567170951,72.99151997,1.25,,,,,,,,,,,,,,,,,,,,,,,,,,,,,,,,,,,,,,,,,,,,,,,,,,,,,,,,,,,,,,,,,,,,,,,,
302,1729873799.0942593,8239,0,33.63657567170951,72.99151997,1.25,,,,,,,,,,,,,,,,,,,,,,,,,,,,,,,,,,,,,,,,,,,,,,,,,,,,,,,,,,,,,,,,,,,,,,,,
303,1729873799,8240,0,33.63657567170951,72.99151997,1.25,,,,,,,,,,,,,,,,,,,,,,,,,,,,,,,,,,,,,,,,,,,,,,,,,,,,,,,,,,,,,,,,,,,,,,,,
304,1729873799.094448,8241,0,33.63657567170951,72.99151997,1.25,,,,,,,,,,,,,,,,,,,,,,,,,,,,,,,,,,,,,,,,,,,,,,,,,,,,,,,,,,,,,,,,,,,,,,,,
305,1729873799.0944765,8242,0,33.63657567170951,72.99151997,1.25,,,,,,,,,,,,,,,,,,,,,,,,,,,,,,,,,,,,,,,,,,,,,,,,,,,,,,,,,,,,,,,,,,,,,,,,
306,1729873799.0947657,8243,0,33.63657567170951,72.99151997,1.25,1729873782.5148287,8486,1729873782,0.2849999964237213,0.01,0,-0.01,1729873781.3996882,8472,1729873781,-1.521653288,-13.63263691,-1.051,-0.017586782,0.009187766,-0.588638291,0,-0.02,0,1729873781.699942,8475,1729873781,-0.017594333,0.009174182,-0.588446925,-0.80829233,0.000439452,0.001273224,-0.00134304,1729873782,8481,1729873782,1000,1000,1000,1000,0,1729873782.703054,8485,1729873782,0.035276867,0.033869546,17,0,550.3900146484375,-0.009864644,1729873781,503.6933199934761,72.9915054,33.6365183,13,,,,,,,,,,,,,,,,,,,,,
307,1729873799.094792,8244,0,33.63657567170951,72.99151997,1.25,,,,,,,,,,,,,,,,,,,,,,,,,,,,,,,,,,,,,,,,,,,,,,,,,,,,,,,,,,,,,,,,,,,,,,,,
308,1729873799.094918,8245,0,33.63657567170951,72.99151997,1.25,,,,,,,,,,,,,,,,,,,,,,,,,,,,,,,,,,,,,,,,,,,,,,,,,,,,,,,,,,,,,,,,,,,,,,,,
309,1729873799.0949454,8246,0,33.63657567170951,72.99151997,1.25,,,,,,,,,,,,,,,,,,,,,,,,,,,,,,,,,,,,,,,,,,,,,,,,,,,,,,,,,,,,,,,,,,,,,,,,
310,1729873799.0950632,8247,0,33.63657567170951,72.99151997,1.25,,,,,,,,,,,,,,,,,,,,,,,,,,,,,,,,,,,,,,,,,,,,,,,,,,,,1729873799.0219958,233,1729873799,33.6365758,72.9915199,551.5599975585938,1.5707963705062866,,,,,,,,,,,,,,
311,1729873799.095101,8248,0,33.63657567170951,72.99151997,1.25,,,,,,,,,,,,,,,,,,,,,,,,,,,,,,,,,,,,,,,,,,,,,,,,,,,,,,,,,,,,,,,,,,,,,,,,
312,1729873799.095609,8249,0,33.63657567170951,72.99151997,1.25,,,,,,,,,,,,,,,,,,,,,,,,,,,,,,,,,,,,,,,,,,,,,,,,,,,,,,,,,,,,,,,,,,,,,,,,
313,1729873799.095636,8250,0,33.63657567170951,72.99151997,1.25,,,,,,,,,,,,,,,,,,,,,,,,,,,,,,,,,,,,,,,,,,,,,,,,,,,,,,,,,,,,,,,,,,,,,,,,
314,1729873799.0957787,8251,0,33.63657567170951,72.99151997,1.25,,,,,,,,,,,,,,,,,,,,,,,,,,,,,,,,,,,,,,,,,,,,,,,,,,,,,,,,,,,,,,,,,,,,,,,,
315,1729873799.095934,8252,0,33.63657567170951,72.99151997,1.25,,,,,,,,,,,,,,,,,,,,,,,,,,,,,,,,,,,,,,,,,,,,,,,,,,,,,,,,,,,,,,,,,,,,,,,,
316,1729873799.0959723,8253,0,33.63657567170951,72.99151997,1.25,,,,,,,,,,,,,,,,,,,,,,,,,,,,,,,,,,,,,,,,,,,,,,,,,,,,,,,,,,,,,,,,,,,,,,,,
317,1729873799.0961142,8254,0,33.63657567170951,72.99151997,1.25,,,,,,,,,,,,,,,,,,,,,,,,,,,,,,,,,,,,,,,,,,,,,,,,,,,,,,,,,,,,,,,,,,,,,,,,
318,1729873799.0961406,8255,0,33.63657567170951,72.99151997,1.25,,,,,,,,,,,,,,,,,,,,,,,,,,,,,,,,,,,,,,,,,,,,,,,,,,,,,,,,,,,,,,,,,,,,,,,,
319,1729873799.0964549,8256,0,33.63657567170951,72.99151997,1.25,,,,,,,,,,,,,,,,,,,,,,,,,,,,,,,,,,,,,,,,,,,,,,,,,,,,,,,,,,,,,,,,,,,,,,,,
320,1729873799.096497,8257,0,33.63657567170951,72.99151997,1.25,,,,,,,,,,,,,,,,,,,,,,,,,,,,,,,,,,,,,,,,,,,,,,,,,,,,,,,,,,,,,,,,,,,,,,,,
321,1729873799.0965335,8258,0,33.63657567170951,72.99151997,1.25,,,,,,,,,,,,,,,,,,,,,,,,,,,,,,,,,,,,,,,,,,,,,,,,,,,,,,,,,,,,,,,,,,,,,,,,
322,1729873799.096571,8259,0,33.63657567170951,72.99151997,1.25,,,,,,,,,,,,,,,,,,,,,,,,,,,,,,,,,,,,,,,,,,,,,,,,,,,,,,,,,,,,,,,,,,,,,,,,
323,1729873799.0966473,8260,0,33.63657567170951,72.99151997,1.25,,,,,,,,,,,,,,,,,,,,,,,,,,,,,,,,,,,,,,,,,,,,,,,,,,,,,,,,,,,,,,,,,,,,,,,,
324,1729873799.096681,8261,0,33.63657567170951,72.99151997,1.25,1729873783,8487,1729873782,0.3000000119209289,0.01,0,-0.01,1729873781.4996245,8473,1729873781,-1.521653288,-13.63263691,-1.051,-0.017572349,0.009189385,-0.58860385,0,-0.02,0,1729873781.799753,8476,1729873781,-0.017601973,0.009178672,-0.588378086,-0.808342223,8.792616426944733e-05,-0.000369215,-0.000935618,1729873782.4036574,8482,1729873782,1000,1000,1000,1000,0,1729873782.8032005,8486,1729873782,0.036076207,0.03529007,18,0,550.3999633789062,-0.007490223,1729873781,503.6833193809551,72.9915054,33.6365182,13,,,,,,,,,,,,,,,,,,,,,
325,1729873799.0968163,8262,0,33.63657567170951,72.99151997,1.25,,,,,,,,,,,,,,,,,,,,,,,,,,,,,,,,,,,,,,,,,,,,,,,,,,,,,,,,,,,,,,,,,,,,,,,,
326,1729873799.0969727,8263,0,33.63657567170951,72.99151997,1.25,,,,,,,,,,,,,,,,,,,,,,,,,,,,,,,,,,,,,,,,,,,,,,,,,,,,,,,,,,,,,,,,,,,,,,,,
327,1729873799.097177,8264,0,33.63657567170951,72.99151997,1.25,,,,,,,,,,,,,,,,,,,,,,,,,,,,,,,,,,,,,,,,,,,,,,,,,,,,,,,,,,,,,,,,,,,,,,,,
328,1729873799.0972114,8265,0,33.63657567170951,72.99151997,1.25,,,,,,,,,,,,,,,,,,,,,,,,,,,,,,,,,,,,,,,,,,,,,,,,,,,,,,,,,,,,,,,,,,,,,,,,
329,1729873799.0975528,8266,0,33.63657567170951,72.99151997,1.25,,,,,,,,,,,,,,,,,,,,,,,,,,,,,,,,,,,,,,,,,,,,,,,,,,,,,,,,,,,,,,,,,,,,,,,,
330,1729873799.0976183,8267,0,33.63657567170951,72.99151997,1.25,,,,,,,,,,,,,,,,,,,,,,,,,,,,,,,,,,,,,,,,,,,,,,,,,,,,,,,,,,,,,,,,,,,,,,,,
331,1729873799.097661,8268,0,33.63657567170951,72.99151997,1.25,,,,,,,,,,,,,,,,,,,,,,,,,,,,,,,,,,,,,,,,,,,,,,,,,,,,,,,,,,,,,,,,,,,,,,,,
332,1729873799.0977037,8269,0,33.63657567170951,72.99151997,1.25,,,,,,,,,,,,,,,,,,,,,,,,,,,,,,,,,,,,,,,,,,,,,,,,,,,,,,,,,,,,,,,,,,,,,,,,
333,1729873799.097818,8270,0,33.63657567170951,72.99151997,1.25,,,,,,,,,,,,,,,,,,,,,,,,,,,,,,,,,,,,,,,,,,,,,,,,,,,,,,,,,,,,,,,,,,,,,,,,
334,1729873799.097933,8271,0,33.63657567170951,72.99151997,1.25,,,,,,,,,,,,,,,,,,,,,,,,,,,,,,,,,,,,,,,,,,,,,,,,,,,,,,,,,,,,,,,,,,,,,,,,
335,1729873799.097977,8272,0,33.63657567170951,72.99151997,1.25,,,,,,,,,,,,,,,,,,,,,,,,,,,,,,,,,,,,,,,,,,,,,,,,,,,,,,,,,,,,,,,,,,,,,,,,
336,1729873799.0980053,8273,0,33.63657567170951,72.99151997,1.25,,,,,,,,,,,,,,,,,,,,,,,,,,,,,,,,,,,,,,,,,,,,,,,,,,,,,,,,,,,,,,,,,,,,,,,,
337,1729873799.098241,8274,0,33.63657567170951,72.99151997,1.25,,,,,,,,,,,,,,,,,,,,,,,,,,,,,,,,,,,,,,,,,,,,,,,,,,,,,,,,,,,,,,,,,,,,,,,,
338,1729873799.0982757,8275,0,33.63657567170951,72.99151997,1.25,,,,,,,,,,,,,,,,,,,,,,,,,,,,,,,,,,,,,,,,,,,,,,,,,,,,,,,,,,,1729873782.5811143,1096,1,0,0,1,5,,,,,,,
339,1729873799.0986693,8276,0,33.63657567170951,72.99151997,1.25,,,,,,,,,,,,,,,,,,,,,,,,,,,,,,,,,,,,,,,,,,,,,,,,,,,,,,,,,,,,,,,,,,,,,,,,
340,1729873799.098697,8277,0,33.63657567170951,72.99151997,1.25,,,,,,,,,,,,,,,,,,,,,,,,,,,,,,,,,,,,,,,,,,,,,,,,,,,,,,,,,,,,,,,,,,,,,,,,
341,1729873799.0987902,8278,0,33.63657567170951,72.99151997,1.25,,,,,,,,,,,,,,,,,,,,,,,,,,,,,,,,,,,,,,,,,,,,,,,,,,,,1729873799.1324198,234,1729873799,33.6365758,72.9915199,551.5599975585938,1.5707963705062866,,,,,,,,,,,,,,
342,1729873799.0988202,8279,0,33.63657567170951,72.99151997,1.25,1729873782.7155182,8488,1729873782,0.3019999861717224,0.01,0,-0.01,1729873781.599702,8474,1729873781,-1.521653292,-13.64372939,-1.049,-0.017571311,0.009195438,-0.588546098,0,-0.02,0,1729873781.9004314,8477,1729873781,-0.01757321,0.009200224,-0.588319636,-0.808385146,-0.000510745,6.15101307630539e-05,2.897111698985099e-05,1729873782.5042791,8483,1729873782,1000,1000,1000,1000,0,1729873782.9032514,8487,1729873782,0.037351433,0.036837492,18,0,550.3999633789062,-0.006174847,1729873781,503.6833193809551,72.9915054,33.6365182,13,,,,,,,,,,,,,,,,,,,,,
343,1729873799.0988588,8280,0,33.63657567170951,72.99151997,1.25,,,,,,,,,,,,,,,,,,,,,,,,,,,,,,,,,,,,,,,,,,,,,,,,,,,,,,,,,,,,,,,,,,,,,,,,
344,1729873799.0989995,8281,0,33.63657567170951,72.99151997,1.25,,,,,,,,,,,,,,,,,,,,,,,,,,,,,,,,,,,,,,,,,,,,,,,,,,,,,,,,,,,,,,,,,,,,,,,,
