S.No,setpoint_raw-global_Time,setpoint_raw-global_header.seq,setpoint_raw-global_header.stamp.secs,setpoint_raw-global_latitude,setpoint_raw-global_longitude,setpoint_raw-global_altitude,battery_Time,battery_header.seq,battery_header.stamp.secs,battery_voltage,battery_current,battery_temperature,battery_percentage,global_position-local_Time,global_position-local_header.seq,global_position-local_header.stamp.secs,global_position-local_pose.pose.position.x,global_position-local_pose.pose.position.y,global_position-local_pose.pose.position.z,global_position-local_pose.pose.orientation.x,global_position-local_pose.pose.orientation.y,global_position-local_pose.pose.orientation.z,global_position-local_twist.twist.linear.x,global_position-local_twist.twist.linear.y,global_position-local_twist.twist.linear.z,imu-data_Time,imu-data_header.seq,imu-data_header.stamp.secs,imu-data_orientation.x,imu-data_orientation.y,imu-data_orientation.z,imu-data_orientation.w,imu-data_angular_velocity.x,imu-data_angular_velocity.y,imu-data_angular_velocity.z,rc-out_Time,rc-out_header.seq,rc-out_header.stamp.secs,rc-out_channels_0,rc-out_channels_1,rc-out_channels_2,rc-out_channels_3,rc-out_channels_4,vfr_hud_Time,vfr_hud_header.seq,vfr_hud_header.stamp.secs,vfr_hud_airspeed,vfr_hud_groundspeed,vfr_hud_heading,vfr_hud_throttle,vfr_hud_altitude,vfr_hud_climb,global_position-global_header.stamp.secs,global_position-global_altitude,global_position-global_longitude,global_position-global_latitude,global_position-raw-satellites_data,setpoint_raw-target_global_Time,setpoint_raw-target_global_header.seq,setpoint_raw-target_global_header.stamp.secs,setpoint_raw-target_global_latitude,setpoint_raw-target_global_longitude,setpoint_raw-target_global_altitude,setpoint_raw-target_global_yaw,state_Time,state_header.seq,state_connected,state_armed,state_guided,state_manual_input,state_system_status,RSSI_Time,RSSI_Quality,RSSI_Signal,CPU_Time,CPU_Percent,RAM_Time,Used_RAM_MB
0,1729786144.7148604,7,0,33.636538632570925,72.99143953172262,1.25,1729786133.356048,270,1729786132,0.082999997,0.01,0,-0.01,1729786133.3487787,175,1729786123,-0.176288879,-0.088739636,1.675,0.019952743,0.008864396,-0.938429062,0,-0.02,-0.01,1729786133.3499506,177,1729786123,0.019945274,0.008852816,-0.938412727,0.3448265764271839,0.000704058,-3.26E-05,0.000588319,1729786133.3532362,252,1729786131,1000,1000,1000,1000,0,1729786133.4109447,275,1729786133,0.00625143,0.005352981,229,0,545.6199951171875,-0.003228927,1729786123,498.9535262426817,72.991489,33.6365626,13,1729786144.721007,0,1729786144,33.6365386,72.9914395,547,1.5707963705062866,1729786133.355241,731,1,0,0,1,3,1729786098.635063,0.8142857142857143,-53,1729786099,1.3,1729786101.399423,5.7
1,1729786144.8608718,452,0,33.636538632570925,72.99143953172262,1.25,,,,,,,,,,,,,,,,,,,,,,,,,,,,,,,,,,,,,,,,,,,,,,,,,,,,,,,,,,,,,,,,,,,,,,,,
2,1729786144.8882585,1206,0,33.63653865325949,72.99143941835115,1.25,,,,,,,,,,,,,,,,,,,,,,,,,,,,,,,,,,,,,,,,,,,,,,,,,,,,,,,,,,,,,,,,,,,,,,,,
3,1729786144.891199,1235,0,33.63653865325949,72.99143941835115,1.25,,,,,,,,,,,,,,,,,,,,,,,,,,,,,,,,,,,,,,,,,,,,,,,,,,,,,,,,,,,,,,,,,,,,,,,,
4,1729786145.2124894,1247,0,33.63653865325949,72.99143941835115,1.25,,,,,,,,,,,,,,,,,,,,,,,,,,,,,,,,,,,,,,,,,,,,,,,,,,,,,,,,,,,,,,,,,,,,,,,,
5,1729786145.2134917,1248,0,33.63653865325949,72.99143941835115,1.25,,,,,,,,,,,,,,,,,,,,,,,,,,,,,,,,,,,,,,,,,,,,,,,,,,,,,,,,,,,,,,,,,,,,,,,,
6,1729786145.213522,1249,0,33.63653865325949,72.99143941835115,1.25,,,,,,,,,,,,,,,,,,,,,,,,,,,,,,,,,,,,,,,,,,,,,,,,,,,,,,,,,,,,,,,,,,,,,,,,
7,1729786145.213545,1309,0,33.63653865325949,72.99143931835114,1.25,,,,,,,,,,,,,,,,,,,,,,,,,,,,,,,,,,,,,,,,,,,,,,,,,,,,,,,,,,,,,,,,,,,,,,,,
8,1729786145.2135663,1329,0,33.63653865325949,72.99143931835114,1.25,,,,,,,,,,,,,,,,,,,,,,,,,,,,,,,,,,,,,,,,,,,,,,,,,,,,,,,,,,,,,,,,,,,,,,,,
9,1729786145.2135882,1346,0,33.63653865325949,72.99143931835114,1.25,,,,,,,,,,,,,,,,,,,,,,,,,,,,,,,,,,,,,,,,,,,,,,,,,,,,,,,,,,,,,,,,,,,,,,,,
10,1729786145.2136445,1738,0,33.63653865325949,72.99143931835114,1.25,,,,,,,,,,,,,,,,,,,,,,,,,,,,,,,,,,,,,,,,,,,,,,,,,,,,,,,,,,,,,,,,,,,,,,,,
11,1729786145.2137082,2070,0,33.63653865325949,72.99143931835114,1.25,,,,,,,,,,,,,,,,,,,,,,,,,,,,,,,,,,,,,,,,,,,,,,,,,,,,,,,,,,,,,,,,,,,,,,,,
12,1729786145.2138753,2094,0,33.63653866981733,72.99143930766958,1.25,,,,,,,,,,,,,,,,,,,,,,,,,,,,,,,,,,,,,,,,,,,,,,,,,,,,,,,,,,,,,,,,,,,,,,,,
13,1729786145.2139215,2131,0,33.63653866981733,72.99143930766958,1.25,,,,,,,,1729786133.3575888,176,1729786123,-0.17628888,-0.088739637,1.684,0.01995177,0.00885916,-0.938418889,0,-0.02,-0.01,1729786133.3500147,178,1729786123,0.019926723,0.00886089,-0.938414635,0.3448222489906838,-0.000101715,-0.001721157,0.000150817,,,,,,,,,,,,,,,,,,1729786123,498.9635262426818,72.991489,33.6365626,13,,,,,,,,,,,,,,,,,,,,,
14,1729786145.3913157,3719,0,33.636538553259484,72.99143911835117,1.25,,,,,,,,,,,,,,,,,,,,,,,,,,,,,,,,,,,,,,,,,,,,,,,,,,,,,,,,,,,,,,,,,,,,,,,,
15,1729786145.3913603,4489,0,33.636538553259484,72.99143911835117,1.25,,,,,,,,,,,,,,,,,,,,,,,,,,,,,,,,,,,,,,,,,,,,,,,,,,,,,,,,,,,,,,,,,,,,,,,,
16,1729786145.3919144,4490,0,33.636538553259484,72.99143911835117,1.25,1729786133.3562555,271,1729786132,0.075999998,0.01,0,-0.01,,,,,,,,,,,,,,,,,,,,,,,1729786133.3534682,253,1729786131,1000,1000,1000,1000,0,,,,,,,,,,,,,,,,,,,,,,,,,,,,,,,,,,,
17,1729786145.7373052,6073,0,33.63653854084518,72.99143892637146,1.25,,,,,,,,,,,,,,,,,,,,,,,,,,,,,,,,,,,,,,1729786133.5094552,276,1729786133,0.006562547,0.004812271,229,0,545.6199951171875,-0.004461958,,,,,,,,,,,,,,,,,,,,,,,,,,
18,1729786145.7377453,6155,0,33.63653847395776,72.99143880500142,1.25,,,,,,,,,,,,,,,,,,,,,,,,,,,,,,,,,,,,,,,,,,,,,,,,,,,,,,,,,,,,,,,,,,,,,,,,
19,1729786145.737809,6289,0,33.63653847395776,72.99143880500142,1.25,,,,,,,,,,,,,,,,,,,,,,,,,,,,,,,,,,,,,,,,,,,,,,,,,,,,,,,,,,,,,,,,,,,,,,,,
20,1729786145.7378488,7463,0,33.63653833670786,72.99143872904669,1.25,,,,,,,,,,,,,,,,,,,,,,,,,,,,,,,,,,,,,,,,,,,,,,,,,,,,,,,,,,,,,,,,,,,,,,,,
21,1729786145.7378852,7751,0,33.63653835325948,72.99143861835124,1.25,,,,,,,,,,,,,,,,,,,,,,,,,,,,,,,,,,,,,,,,,,,,,,,,,,,,,,,,,,,,,,,,,,,,,,,,
22,1729786145.9075358,9245,0,33.63653939715926,72.99143782146173,1.25,,,,,,,,,,,,,,,,,,,,,,,,,,,,,,,,,,,,,,,,,,,,,,,,,,,,,,,,,,,,,,,,,,,,,,,,
23,1729786145.9122672,9261,0,33.63653939715926,72.99143782146173,1.25,,,,,,,,,,,,,,,,,,,,,,,,,,,,,,,,,,,,,,,,,,,,,,,,,,,,,,,,,,,,,,,,,,,,,,,,
24,1729786146.0838983,9876,0,33.63653939715926,72.99143782146173,1.2549999952316284,,,,,,,,,,,,,,,,,,,,,,,,,,,,,,,,,,,,,,,,,,,,,,,,,,,,,,,,,,,,,,,,,,,,,,,,
25,1729786146.0988083,9981,0,33.63653939715926,72.99143782146173,1.2549999952316284,,,,,,,,,,,,,,,,,,,,,,,,,,,,,,,,,,,,,,,,,,,,,,,,,,,,,,,,,,,,,,,,,,,,,,,,
26,1729786146.0989842,10723,0,33.63653939715926,72.99143782146173,1.253999948501587,,,,,,,,1729786133.3578591,177,1729786123,-0.17628888,-0.088739637,1.686,0.019945274,0.008852816,-0.938412727,0,-0.02,-0.01,1729786133.350102,179,1729786123,0.019935925,0.008841112,-0.938413721,0.3448247116186465,1.6763806343078613e-05,-0.000851108,-0.000242099,,,,,,,,,,,,,,,,,,1729786123,498.9635262426818,72.991489,33.6365626,13,,,,,,,,,,,,,,,,,,,,,
27,1729786146.1061392,10796,0,33.63653939715926,72.99143782146173,1.253999948501587,,,,,,,,,,,,,,,,,,,,,,,,,,,,,,,,,,,,,,,,,,,,,,,,,,,,,,,,,,,,,,,,,,,,,,,,
28,1729786146.254137,11646,0,33.63653945230842,72.99143779,1.25,,,,,,,,,,,,,,,,,,,,,,,,,,,,,,,,,,,,,,,,,,,,,,,,,,,,,,,,,,,,,,,,,,,,,,,,
29,1729786146.2618403,12088,0,33.63653945230842,72.99143779,1.25,,,,,,,,,,,,,,,,,,,,,,,,,,,,,,,,,,,,,,,,,,,,,,,,,,,,,,,,,,,,,,,,,,,,,,,,
30,1729786146.2620142,12090,0,33.63653945230842,72.99143779,1.25,,,,,,,,,,,,,,,,,,,,,,,,,,,,,,,,,,,,,,,,,,,,,,,,,,,,,,,,,,,,,,,,,,,,,,,,
31,1729786146.2683167,12091,0,33.63653945230842,72.99143779,1.25,,,,,,,,,,,,,,,,,,,,,,,,,,,,,,,,,,,,,,,,,,,,,,,,,,,,,,,,,,,,,,,,,,,,,,,,
32,1729786146.2684703,12133,0,33.63653945230842,72.99143779,1.25,1729786133.3565123,272,1729786133,0.078000002,0.01,0,-0.01,,,,,,,,,,,,,,,,,,,,,,,1729786133.3535483,254,1729786131,1000,1000,1000,1000,0,,,,,,,,,,,,,,,,,,,,,,,,,,,,,,,,,,,
33,1729786146.2731905,12207,0,33.63653945230842,72.99143779,1.25,,,,,,,,,,,,,,,,,,,,,,,,,,,,,,,,,,,,,,,,,,,,,,,,,,,,,,,,,,,,,,,,,,,,,,,,
34,1729786146.4276218,13239,0,33.636538928731675,72.9914381,1.25,,,,,,,,,,,,,,,,,,,,,,,,,,,,,,,,,,,,,,1729786133.6095314,277,1729786133,0.007492394,0.005346062,229,0,545.6099853515625,-0.005249341,,,,,,,,,,,,,,,,,,,,,,,,,,
35,1729786146.4384236,13422,0,33.636538928731675,72.9914381,1.25,,,,,,,,,,,,,,,,,,,,,,,,,,,,,,,,,,,,,,,,,,,,,,,,,,,,1729786144.8190484,1,1729786144,33.6365386,72.9914395,547,1.5707963705062866,,,,,,,,,,,,,,
36,1729786146.444363,13478,0,33.636538928731675,72.9914381,1.25,,,,,,,,,,,,,,,,,,,,,,,,,,,,,,,,,,,,,,,,,,,,,,,,,,,,,,,,,,,,,,,,,,,,,,,,
37,1729786146.6016428,13907,0,33.636538928731675,72.9914381,1.25,,,,,,,,,,,,,,,,,,,,,,,,,,,,,,,,,,,,,,,,,,,,,,,,,,,,,,,,,,,,,,,,,,,,,,,,
38,1729786146.612362,13953,0,33.636538928731675,72.9914381,1.25,,,,,,,,,,,,,,,,,,,,,,,,,,,,,,,,,,,,,,,,,,,,,,,,,,,,,,,,,,,,,,,,,,,,,,,,
39,1729786146.6125176,14301,0,33.63653888675084,72.99143812225783,1.25,,,,,,,,1729786133.358348,178,1729786123,-0.17628888,-0.099832091,1.691,0.019926723,0.00886089,-0.938414635,0,-0.02,-0.01,1729786133.3502758,180,1729786123,0.01998811,0.008796747,-0.938407338,0.3448401957877464,-0.000188706,-0.00075892,-0.00010033,,,,,,,,,,,,,,,,,,1729786123,498.9735256301283,72.991489,33.6365625,13,,,,,,,,,,,,,,,,,,,,,
40,1729786146.612682,14447,0,33.63653888675084,72.99143812225783,1.25,,,,,,,,,,,,,,,,,,,,,,,,,,,,,,,,,,,,,,,,,,,,,,,,,,,,,,,,,,,,,,,,,,,,,,,,
41,1729786146.6127155,14775,0,33.63653888675084,72.99143812225783,1.25,,,,,,,,,,,,,,,,,,,,,,,,,,,,,,,,,,,,,,,,,,,,,,,,,,,,,,,,,,,,,,,,,,,,,,,,
42,1729786146.612907,14798,0,33.63653878675085,72.99143812225788,1.25,,,,,,,,,,,,,,,,,,,,,,,,,,,,,,,,,,,,,,,,,,,,,,,,,,,,,,,,,,,,,,,,,,,,,,,,
43,1729786146.6267931,14830,0,33.63653878675085,72.99143812225788,1.25,,,,,,,,,,,,,,,,,,,,,,,,,,,,,,,,,,,,,,,,,,,,,,,,,,,,,,,,,,,,,,,,,,,,,,,,
44,1729786146.6318166,14971,0,33.636538782554794,72.99143812479764,1.25,,,,,,,,,,,,,,,,,,,,,,,,,,,,,,,,,,,,,,,,,,,,,,,,,,,,,,,,,,,,,,,,,,,,,,,,
45,1729786146.6321704,14972,0,33.636538782554794,72.99143812479764,1.25,,,,,,,,,,,,,,,,,,,,,,,,,,,,,,,,,,,,,,,,,,,,,,,,,,,,,,,,,,,,,,,,,,,,,,,,
46,1729786146.632372,15006,0,33.636538782554794,72.99143812479764,1.25,,,,,,,,,,,,,,,,,,,,,,,,,,,,,,,,,,,,,,,,,,,,,,,,,,,,,,,,,,,,,,,,,,,,,,,,
47,1729786146.6382432,15017,0,33.636538782554794,72.99143812479764,1.25,,,,,,,,,,,,,,,,,,,,,,,,,,,,,,,,,,,,,,,,,,,,,,,,,,,,,,,,,,,,,,,,,,,,,,,,
48,1729786147,16246,0,33.636538753192745,72.99143814260061,1.25,1729786133.3568556,273,1729786133,0.078000002,0.01,0,-0.01,,,,,,,,,,,,,,,,,,,,,,,1729786133.3536005,255,1729786131,1000,1000,1000,1000,0,,,,,,,,,,,,,,,,,,,,,,,,,,,,,,,,,,,
49,1729786146.8064132,16404,0,33.636538719658326,72.99143816299963,1.25,,,,,,,,,,,,,,,,,,,,,,,,,,,,,,,,,,,,,,,,,,,,,,,,,,,,,,,,,,,,,,,,,,,,,,,,
50,1729786146.9590883,16427,0,33.636538719658326,72.99143816299963,1.25,,,,,,,,,,,,,,,,,,,,,,,,,,,,,,,,,,,,,,,,,,,,,,,,,,,,,,,,,,,,,,,,,,,,,,,,
51,1729786146.9815571,16436,0,33.636538719658326,72.99143816299963,1.25,,,,,,,,,,,,,,,,,,,,,,,,,,,,,,,,,,,,,,1729786133.709206,278,1729786133,0.007620054,0.005454902,229,0,545.5999755859375,-0.005320644,,,,,,,,,,,,,,,,,,,,,,,,,,
52,1729786146.9816003,17660,0,33.63653871546819,72.99143806555345,1.25,,,,,,,,1729786133,179,1729786123,-0.185567243,-0.099832091,1.696,0.019935925,0.008841112,-0.938413721,0,-0.02,-0.01,1729786133,181,1729786124,0.020014754,0.008769367,-0.938403538,0.3448496872384764,-0.00107605,-0.000252556,0.000395548,,,,,,,,,,,,,,,,,,1729786123,498.9735252331401,72.9914889,33.6365625,13,,,,,,,,,,,,,,,,,,,,,
53,1729786146.989552,17694,0,33.63653871546819,72.99143806555345,1.25,,,,,,,,,,,,,,,,,,,,,,,,,,,,,,,,,,,,,,,,,,,,,,,,,,,,,,,,,,,,,,,,,,,,,,,,
54,1729786146.9895954,17695,0,33.63653871546819,72.99143806555345,1.25,,,,,,,,,,,,,,,,,,,,,,,,,,,,,,,,,,,,,,,,,,,,,,,,,,,,,,,,,,,,,,,,,,,,,,,,
55,1729786147.0155327,17921,0,33.63653871546819,72.99143806555345,1.25,,,,,,,,,,,,,,,,,,,,,,,,,,,,,,,,,,,,,,,,,,,,,,,,,,,,,,,,,,,,,,,,,,,,,,,,
56,1729786147.050948,17922,0,33.63653871546819,72.99143806555345,1.25,,,,,,,,,,,,,,,,,,,,,,,,,,,,,,,,,,,,,,,,,,,,,,,,,,,,,,,,,,,,,,,,,,,,,,,,
57,1729786147.0510757,18036,0,33.63653866158006,72.99143804,1.25,,,,,,,,,,,,,,,,,,,,,,,,,,,,,,,,,,,,,,,,,,,,,,,,,,,,,,,,,,,,,,,,,,,,,,,,
58,1729786147.0512755,18038,0,33.63653866158006,72.99143804,1.25,,,,,,,,,,,,,,,,,,,,,,,,,,,,,,,,,,,,,,,,,,,,,,,,,,,,,,,,,,,,,,,,,,,,,,,,
59,1729786147.0942285,18699,0,33.63653866158006,72.99143804,1.25,,,,,,,,,,,,,,,,,,,,,,,,,,,,,,,,,,,,,,,,,,,,,,,,,,,,,,,,,,,,,,,,,,,,,,,,
60,1729786147.115764,18817,0,33.636538728731686,72.99143799690866,1.25,,,,,,,,,,,,,,,,,,,,,,,,,,,,,,,,,,,,,,,,,,,,,,,,,,,,,,,,,,,,,,,,,,,,,,,,
61,1729786147.220548,19667,0,33.636538766545875,72.99143787,1.25,,,,,,,,,,,,,,,,,,,,,,,,,,,,,,,,,,,,,,,,,,,,,,,,,,,,,,,,,,,,,,,,,,,,,,,,
62,1729786147.2818923,20212,0,33.636538766545875,72.99143787,1.25,,,,,,,,,,,,,,,,,,,,,,,,,,,,,,,,,,,,,,,,,,,,,,,,,,,,,,,,,,,,,,,,,,,,,,,,
63,1729786147.2993248,20297,0,33.636538766545875,72.99143787,1.25,,,,,,,,,,,,,,,,,,,,,,,,,,,,,,,,,,,,,,,,,,,,,,,,,,,,,,,,,,,,,,,,,,,,,,,,
64,1729786147.306718,20353,0,33.63653875,72.99143778426705,1.25,1729786133.3570514,274,1729786133,0.074000001,0.01,0,-0.01,,,,,,,,,,,,,,,,,,,,,,,1729786133.355307,256,1729786131,1000,1000,1000,1000,0,,,,,,,,,,,,,,,,,,,,,,,,,,,,,,,,,,,
65,1729786147.3202968,20439,0,33.63653875,72.99143778426705,1.25,,,,,,,,1729786133,180,1729786123,-0.185567244,-0.099832091,1.7,0.01998811,0.008796747,-0.938407338,0,-0.02,-0.01,1729786133.3509967,182,1729786124,0.020034867,0.008748324,-0.938393174,0.3448772563618074,-0.000998059,-0.000644505,0.000735066,,,,,,,,,,,,,,,,,,1729786123,498.9835252331401,72.9914889,33.6365625,13,,,,,,,,,,,,,,,,,,,,,
66,1729786147.3231218,20440,0,33.63653875,72.99143778426705,1.25,,,,,,,,,,,,,,,,,,,,,,,,,,,,,,,,,,,,,,,,,,,,,,,,,,,,,,,,,,,,,,,,,,,,,,,,
67,1729786147.362645,20766,0,33.63653875,72.99143778426705,1.25,,,,,,,,,,,,,,,,,,,,,,,,,,,,,,,,,,,,,,,,,,,,,,,,,,,,,,,,,,,,,,,,,,,,,,,,
68,1729786147.3959422,21058,0,33.63653875,72.99143778426705,1.25,,,,,,,,,,,,,,,,,,,,,,,,,,,,,,,,,,,,,,1729786133.8092628,279,1729786133,0.009379058,0.005072649,229,0,545.5899658203125,-0.007888913,,,,,,,,,,,,,,,,,,,,,,,,,,
69,1729786147,21231,0,33.63653872453194,72.99143779943962,1.25,,,,,,,,,,,,,,,,,,,,,,,,,,,,,,,,,,,,,,,,,,,,,,,,,,,,,,,,,,,,,,,,,,,,,,,,
70,1729786147.424061,21242,0,33.63653872453194,72.99143779943962,1.25,,,,,,,,,,,,,,,,,,,,,,,,,,,,,,,,,,,,,,,,,,,,,,,,,,,,1729786144.919256,2,1729786144,33.6365386,72.9914394,547,1.5707963705062866,,,,,,,,,,,,,1729786102.400921,5.7
71,1729786147.4255042,21243,0,33.63653872453194,72.99143779943962,1.25,,,,,,,,,,,,,,,,,,,,,,,,,,,,,,,,,,,,,,,,,,,,,,,,,,,,,,,,,,,,,,,,,,,,,,,,
72,1729786147.4280338,21253,0,33.63653872453194,72.99143779943962,1.25,,,,,,,,,,,,,,,,,,,,,,,,,,,,,,,,,,,,,,,,,,,,,,,,,,,,,,,,,,,,,,,,,,,,,,,,
73,1729786147.5229068,22017,0,33.636538720332574,72.99143770197146,1.25,,,,,,,,,,,,,,,,,,,,,,,,,,,,,,,,,,,,,,,,,,,,,,,,,,,,,,,,,,,,,,,,,,,,,,,,
74,1729786147.5590503,22344,0,33.636538720332574,72.99143770197146,1.25,,,,,,,,,,,,,,,,,,,,,,,,,,,,,,,,,,,,,,,,,,,,,,,,,,,,,,,,,,,,,,,,,,,,,,,,
75,1729786147.5994744,22660,0,33.636538720332574,72.99143770197146,1.25,,,,,,,,,,,,,,,,,,,,,,,,,,,,,,,,,,,,,,,,,,,,,,,,,,,,,,,,,,,,,,,,,,,,,,,,
76,1729786147.6269891,22843,0,33.636538720332574,72.99143770197146,1.25,,,,,,,,,,,,,,,,,,,,,,,,,,,,,,,,,,,,,,,,,,,,,,,,,,,,,,,,,,,,,,,,,,,,,,,,
77,1729786147.6346965,22871,0,33.636538720332574,72.99143770197146,1.25,,,,,,,,,,,,,,,,,,,,,,,,,,,,,,,,,,,,,,,,,,,,,,,,,,,,,,,,,,,,,,,,,,,,,,,,
78,1729786147.7048836,23479,0,33.636538720332574,72.99143770197146,1.25,,,,,,,,1729786133.3588803,181,1729786124,-0.194845605,-0.110924545,1.702,0.020014754,0.008769367,-0.938403538,0,-0.02,-0.01,1729786133.3511071,183,1729786124,0.020039885,0.008727212,-0.938378745,0.3449167573601243,-0.00078509,-0.000210607,-6.98E-05,,,,,,,,,,,,,,,,,,1729786124,498.9835242235986,72.9914888,33.6365624,13,,,,,,,,,,,,,,,,,,,,,
79,1729786147.7238932,23522,0,33.636538620332566,72.9914376,1.25,,,,,,,,,,,,,,,,,,,,,,,,,,,,,,,,,,,,,,,,,,,,,,,,,,,,,,,,,,,,,,,,,,,,,,,,
80,1729786147.726776,23563,0,33.63653861613356,72.99143760450423,1.25,1729786133.3572607,275,1729786133,0.082000002,0.01,0,-0.01,,,,,,,,,,,,,,,,,,,,,,,1729786133.3554404,257,1729786131,1000,1000,1000,1000,0,,,,,,,,,,,,,,,,,,,,,,,,,,,,,,,,,,,
81,1729786147.7294257,23670,0,33.63653861613356,72.99143760450423,1.25,,,,,,,,,,,,,,,,,,,,,,,,,,,,,,,,,,,,,,,,,,,,,,,,,,,,,,,,,,,,,,,,,,,,,,,,
82,1729786147.7990732,24214,0,33.63653861613356,72.99143760450423,1.25,,,,,,,,,,,,,,,,,,,,,,,,,,,,,,,,,,,,,,,,,,,,,,,,,,,,,,,,,,,,,,,,,,,,,,,,
83,1729786147.812132,24272,0,33.636538641333104,72.99143758932108,1.25,,,,,,,,,,,,,,,,,,,,,,,,,,,,,,,,,,,,,,,,,,,,,,,,,,,,,,,,,,,,,,,,,,,,,,,,
84,1729786147.8176355,24306,0,33.636538641333104,72.99143758932108,1.25,,,,,,,,,,,,,,,,,,,,,,,,,,,,,,,,,,,,,,,,,,,,,,,,,,,,,,,,,,,,,,,,,,,,,,,,
85,1729786147.852116,24636,0,33.636538641333104,72.99143758932108,1.25,,,,,,,,,,,,,,,,,,,,,,,,,,,,,,,,,,,,,,1729786133.9094536,280,1729786133,0.010199884,0.003663028,229,0,545.5800170898438,-0.009519447,,,,,,,,,,,,,,,,,,,,,,,,,,
86,1729786147.8958032,24983,0,33.636538541333096,72.99143758932111,1.25,,,,,,,,,,,,,,,,,,,,,,,,,,,,,,,,,,,,,,,,,,,,,,,,,,,,,,,,,,,,,,,,,,,,,,,,
87,1729786147.898592,24985,0,33.63653855814014,72.99143757921662,1.25,,,,,,,,,,,,,,,,,,,,,,,,,,,,,,,,,,,,,,,,,,,,,,,,,,,,,,,,,,,,,,,,,,,,,,,,
88,1729786147.9018624,25004,0,33.63653855814014,72.99143757921662,1.25,,,,,,,,,,,,,,,,,,,,,,,,,,,,,,,,,,,,,,,,,,,,,,,,,,,,,,,,,,,,,,,,,,,,,,,,
89,1729786147.906333,25005,0,33.63653855814014,72.99143757921662,1.25,,,,,,,,,,,,,,,,,,,,,,,,,,,,,,,,,,,,,,,,,,,,,,,,,,,,,,,,,,,,,,,,,,,,,,,,
90,1729786147.9063802,25006,0,33.63653855814014,72.99143757921662,1.25,,,,,,,,,,,,,,,,,,,,,,,,,,,,,,,,,,,,,,,,,,,,,,,,,,,,,,,,,,,,,,,,,,,,,,,,
91,1729786147.906406,25007,0,33.63653855814014,72.99143757921662,1.25,,,,,,,,1729786133.3589523,182,1729786124,-0.204123967,-0.110924544,1.708,0.020034867,0.008748324,-0.938393174,0,-0.02,-0.01,1729786133.351274,184,1729786124,0.020043958,0.008715377,-0.938360734,0.344965816,0.00078598,-0.000239868,-1.87E-05,,,,,,,,,,,,,,,,,,1729786124,498.98352382661056,72.9914887,33.6365624,13,,,,,,,,,,,,,,,,,,,,,
92,1729786147.9064288,25008,0,33.63653855814014,72.99143757921662,1.25,,,,,,,,,,,,,,,,,,,,,,,,,,,,,,,,,,,,,,,,,,,,,,,,,,,,,,,,,,,,,,,,,,,,,,,,
93,1729786147.9064574,25009,0,33.63653855814014,72.99143757921662,1.25,,,,,,,,,,,,,,,,,,,,,,,,,,,,,,,,,,,,,,,,,,,,,,,,,,,,,,,,,,,,,,,,,,,,,,,,
94,1729786147.9065046,25010,0,33.63653855814014,72.99143757921662,1.25,,,,,,,,,,,,,,,,,,,,,,,,,,,,,,,,,,,,,,,,,,,,,,,,,,,,,,,,,,,,,,,,,,,,,,,,
95,1729786147.906538,25011,0,33.63653855814014,72.99143757921662,1.25,,,,,,,,,,,,,,,,,,,,,,,,,,,,,,,,,,,,,,,,,,,,,,,,,,,,,,,,,,,,,,,,,,,,,,,,
96,1729786147.9066064,25012,0,33.63653855814014,72.99143757921662,1.25,1729786133.4222186,276,1729786133,0.075999998,0.01,0,-0.01,,,,,,,,,,,,,,,,,,,,,,,1729786133.3555956,258,1729786131,1000,1000,1000,1000,0,,,,,,,,,,,,,,,,,,,,,,,,,,,,,,,,,,,
97,1729786147.908032,25013,0,33.63653855814014,72.99143757921662,1.25,,,,,,,,,,,,,,,,,,,,,,,,,,,,,,,,,,,,,,,,,,,,,,,,,,,,,,,,,,,,,,,,,,,,,,,,
98,1729786147.9085815,25014,0,33.63653855814014,72.99143757921662,1.25,,,,,,,,,,,,,,,,,,,,,,,,,,,,,,,,,,,,,,,,,,,,,,,,,,,,,,,,,,,,,,,,,,,,,,,,
99,1729786147.9086294,25015,0,33.63653855814014,72.99143757921662,1.25,,,,,,,,,,,,,,,,,,,,,,,,,,,,,,,,,,,,,,,,,,,,,,,,,,,,,,,,,,,,,,,,,,,,,,,,
100,1729786147.9087682,25016,0,33.63653855814014,72.99143757921662,1.25,,,,,,,,,,,,,,,,,,,,,,,,,,,,,,,,,,,,,,,,,,,,,,,,,,,,,,,,,,,,,,,,,,,,,,,,
101,1729786147.9087946,25017,0,33.63653855814014,72.99143757921662,1.25,,,,,,,,,,,,,,,,,,,,,,,,,,,,,,,,,,,,,,,,,,,,,,,,,,,,,,,,,,,,,,,,,,,,,,,,
102,1729786147.908818,25018,0,33.63653855814014,72.99143757921662,1.25,,,,,,,,,,,,,,,,,,,,,,,,,,,,,,,,,,,,,,1729786134.0113544,281,1729786134,0.011901229,0.003262109,229,0,545.5700073242188,-0.011445431,,,,,,,,,,,,,,,,,,,,,,,,,,
103,1729786147.9108531,25019,0,33.63653855814014,72.99143757921662,1.25,,,,,,,,,,,,,,,,,,,,,,,,,,,,,,,,,,,,,,,,,,,,,,,,,,,,,,,,,,,,,,,,,,,,,,,,
104,1729786147.9108927,25020,0,33.63653855814014,72.99143757921662,1.25,,,,,,,,1729786133.359033,183,1729786124,-0.204123967,-0.110924545,1.717,0.020039885,0.008727212,-0.938378745,0,-0.02,-0.02,1729786133.3514566,185,1729786124,0.020041032,0.008721582,-0.938359043,0.3449704292256378,0.000358803,0.000277584,-0.000450879,,,,,,,,,,,,,,,,,,1729786124,498.99352382661056,72.9914887,33.6365624,13,,,,,,,,,,,,,,,,,,,,,
105,1729786147.9110043,25021,0,33.63653855814014,72.99143757921662,1.25,,,,,,,,,,,,,,,,,,,,,,,,,,,,,,,,,,,,,,,,,,,,,,,,,,,,1729786145.0210168,3,1729786145,33.6365386,72.9914394,547,1.5707963705062866,,,,,,,,,,,,,,
106,1729786147.9137056,25022,0,33.63653855814014,72.99143757921662,1.25,,,,,,,,,,,,,,,,,,,,,,,,,,,,,,,,,,,,,,,,,,,,,,,,,,,,,,,,,,,,,,,,,,,,,,,,
107,1729786147.9138396,25023,0,33.63653855814014,72.99143757921662,1.25,,,,,,,,,,,,,,,,,,,,,,,,,,,,,,,,,,,,,,,,,,,,,,,,,,,,,,,,,,,,,,,,,,,,,,,,
108,1729786148,25024,0,33.63653855814014,72.99143757921662,1.25,,,,,,,,,,,,,,,,,,,,,,,,,,,,,,,,,,,,,,,,,,,,,,,,,,,,,,,,,,,,,,,,,,,,,,,,
109,1729786147.9139051,25025,0,33.63653855814014,72.99143757921662,1.25,,,,,,,,,,,,,,,,,,,,,,,,,,,,,,,,,,,,,,,,,,,,,,,,,,,,,,,,,,,,,,,,,,,,,,,,
110,1729786147.9139302,25026,0,33.63653855814014,72.99143757921662,1.25,,,,,,,,,,,,,,,,,,,,,,,,,,,,,,,,,,,,,,,,,,,,,,,,,,,,,,,,,,,,,,,,,,,,,,,,
111,1729786147.9139524,25027,0,33.63653855814014,72.99143757921662,1.25,,,,,,,,,,,,,,,,,,,,,,,,,,,,,,,,,,,,,,,,,,,,,,,,,,,,,,,,,,,,,,,,,,,,,,,,
112,1729786147.9141338,25028,0,33.63653855814014,72.99143757921662,1.25,1729786133.519552,277,1729786133,0.077,0.01,0,-0.01,,,,,,,,,,,,,,,,,,,,,,,1729786133.3557365,259,1729786131,1000,1000,1000,1000,0,,,,,,,,,,,,,,,,,,,,,,,,,,,,,,,,,,,
113,1729786147.9141638,25029,0,33.63653855814014,72.99143757921662,1.25,,,,,,,,,,,,,,,,,,,,,,,,,,,,,,,,,,,,,,,,,,,,,,,,,,,,,,,,,,,,,,,,,,,,,,,,
114,1729786147.9142797,25030,0,33.63653855814014,72.99143757921662,1.25,,,,,,,,,,,,,,,,,,,,,,,,,,,,,,,,,,,,,,,,,,,,,,,,,,,,,,,,,,,,,,,,,,,,,,,,
115,1729786147.9144137,25031,0,33.63653855814014,72.99143757921662,1.25,,,,,,,,,,,,,,,,,,,,,,,,,,,,,,,,,,,,,,,,,,,,,,,,,,,,,,,,,,,,,,,,,,,,,,,,
116,1729786147.9144385,25032,0,33.63653855814014,72.99143757921662,1.25,,,,,,,,,,,,,,,,,,,,,,,,,,,,,,,,,,,,,,,,,,,,,,,,,,,,,,,,,,,,,,,,,,,,,,,,
117,1729786148,25033,0,33.63653855814014,72.99143757921662,1.25,,,,,,,,1729786133.3591163,184,1729786124,-0.21340233,-0.122017001,1.724,0.020043958,0.008715377,-0.938360734,0,-0.02,-0.02,1729786133.3515422,186,1729786124,0.020041797,0.008745983,-0.938355612,0.3449790990007303,-0.000700399,8.999742567539215e-05,-4.37E-05,,,,,,,,,,,,,,,,,,1729786124,499.00352281706927,72.9914886,33.6365623,13,,,,,,,,,,,,,,,,,,,,,
118,1729786147.9146538,25034,0,33.63653855814014,72.99143757921662,1.25,,,,,,,,,,,,,,,,,,,,,,,,,,,,,,,,,,,,,,,,,,,,,,,,,,,,,,,,,,,,,,,,,,,,,,,,
119,1729786147.914679,25035,0,33.63653855814014,72.99143757921662,1.25,,,,,,,,,,,,,,,,,,,,,,,,,,,,,,,,,,,,,,1729786134.1094434,282,1729786134,0.012699203,0.0024848,229,0,545.5599975585938,-0.012453735,,,,,,,,,,,,,,,,,,,,,,,,,,
120,1729786147.914708,25036,0,33.63653855814014,72.99143757921662,1.25,,,,,,,,,,,,,,,,,,,,,,,,,,,,,,,,,,,,,,,,,,,,,,,,,,,,,,,,,,,,,,,,,,,,,,,,
121,1729786147.9148471,25037,0,33.63653855814014,72.99143757921662,1.25,,,,,,,,,,,,,,,,,,,,,,,,,,,,,,,,,,,,,,,,,,,,,,,,,,,,,,,,,,,,,,,,,,,,,,,,
122,1729786147.9148717,25038,0,33.63653855814014,72.99143757921662,1.25,,,,,,,,,,,,,,,,,,,,,,,,,,,,,,,,,,,,,,,,,,,,,,,,,,,,,,,,,,,,,,,,,,,,,,,,
123,1729786147.9149857,25039,0,33.63653855814014,72.99143757921662,1.25,,,,,,,,,,,,,,,,,,,,,,,,,,,,,,,,,,,,,,,,,,,,,,,,,,,,,,,,,,,,,,,,,,,,,,,,
124,1729786148,25040,0,33.63653855814014,72.99143757921662,1.25,,,,,,,,,,,,,,,,,,,,,,,,,,,,,,,,,,,,,,,,,,,,,,,,,,,,,,,,,,,,,,,,,,,,,,,,
125,1729786147.915126,25041,0,33.63653855814014,72.99143757921662,1.25,,,,,,,,,,,,,,,,,,,,,,,,,,,,,,,,,,,,,,,,,,,,,,,,,,,,,,,,,,,,,,,,,,,,,,,,
126,1729786147.915249,25042,0,33.63653855814014,72.99143757921662,1.25,,,,,,,,,,,,,,,,,,,,,,,,,,,,,,,,,,,,,,,,,,,,,,,,,,,,,,,,,,,,,,,,,,,,,,,,
127,1729786147.9152937,25043,0,33.63653855814014,72.99143757921662,1.25,,,,,,,,,,,,,,,,,,,,,,,,,,,,,,,,,,,,,,,,,,,,,,,,,,,,,,,,,,,,,,,,,,,,,,,,
128,1729786147.9153235,25044,0,33.63653855814014,72.99143757921662,1.25,1729786133.6215415,278,1729786133,0.079000004,0.01,0,-0.01,,,,,,,,,,,,,,,,,,,,,,,1729786133.3559065,260,1729786131,1000,1000,1000,1000,0,,,,,,,,,,,,,,,,,,,,,,,,,,,,,,,,,,,
129,1729786147.9153464,25045,0,33.63653855814014,72.99143757921662,1.25,,,,,,,,,,,,,,,,,,,,,,,,,,,,,,,,,,,,,,,,,,,,,,,,,,,,,,,,,,,,,,,,,,,,,,,,
130,1729786147.915465,25046,0,33.63653855814014,72.99143757921662,1.25,,,,,,,,1729786133.3591783,185,1729786124,-0.21340233,-0.122017001,1.723,0.020041032,0.008721582,-0.938359043,0,-0.02,-0.01,1729786133.3519084,187,1729786124,0.020060191,0.008763805,-0.938357251,0.3449731216657007,-0.000412261,-0.000406012,3.930181264877369e-06,,,,,,,,,,,,,,,,,,1729786124,499.00352281706927,72.9914886,33.6365623,13,,,,,,,,,,,,,,,,,,,,,
131,1729786147.9154866,25047,0,33.63653855814014,72.99143757921662,1.25,,,,,,,,,,,,,,,,,,,,,,,,,,,,,,,,,,,,,,,,,,,,,,,,,,,,,,,,,,,,,,,,,,,,,,,,
132,1729786147.9155955,25048,0,33.63653855814014,72.99143757921662,1.25,,,,,,,,,,,,,,,,,,,,,,,,,,,,,,,,,,,,,,,,,,,,,,,,,,,,,,,,,,,,,,,,,,,,,,,,
133,1729786147.9156206,25049,0,33.63653855814014,72.99143757921662,1.25,,,,,,,,,,,,,,,,,,,,,,,,,,,,,,,,,,,,,,,,,,,,,,,,,,,,,,,,,,,,,,,,,,,,,,,,
134,1729786147.9157362,25050,0,33.63653855814014,72.99143757921662,1.25,,,,,,,,,,,,,,,,,,,,,,,,,,,,,,,,,,,,,,,,,,,,,,,,,,,,,,,,,,,,,,,,,,,,,,,,
135,1729786147.916833,25051,0,33.63653855814014,72.99143757921662,1.25,,,,,,,,,,,,,,,,,,,,,,,,,,,,,,,,,,,,,,,,,,,,,,,,,,,,,,,,,,,,,,,,,,,,,,,,
136,1729786147.9173672,25052,0,33.63653855814014,72.99143757921662,1.25,,,,,,,,,,,,,,,,,,,,,,,,,,,,,,,,,,,,,,1729786134.2097344,283,1729786134,0.011540939,0.003203451,229,0,545.5599975585938,-0.011087433,,,,,,,,,,,,,,,,,,,,,,,,,,
137,1729786147.917393,25053,0,33.63653855814014,72.99143757921662,1.25,,,,,,,,,,,,,,,,,,,,,,,,,,,,,,,,,,,,,,,,,,,,,,,,,,,,,,,,,,,,,,,,,,,,,,,,
138,1729786147.9178543,25054,0,33.63653855814014,72.99143757921662,1.25,,,,,,,,,,,,,,,,,,,,,,,,,,,,,,,,,,,,,,,,,,,,,,,,,,,,,,,,,,,,,,,,,,,,,,,,
139,1729786147.9180074,25055,0,33.63653855814014,72.99143757921662,1.25,,,,,,,,,,,,,,,,,,,,,,,,,,,,,,,,,,,,,,,,,,,,,,,,,,,,,,,,,,,,,,,,,,,,,,,,
140,1729786147.9180312,25056,0,33.63653855814014,72.99143757921662,1.25,,,,,,,,,,,,,,,,,,,,,,,,,,,,,,,,,,,,,,,,,,,,,,,,,,,,1729786145.1213615,4,1729786145,33.6365386,72.9914394,547,1.5707963705062866,,,,,,,,,,,,,1729786103.402873,5.7
141,1729786147.918177,25057,0,33.63653855814014,72.99143757921662,1.25,,,,,,,,,,,,,,,,,,,,,,,,,,,,,,,,,,,,,,,,,,,,,,,,,,,,,,,,,,,,,,,,,,,,,,,,
142,1729786147.9182017,25059,0,33.63653855814014,72.99143757921662,1.25,,,,,,,,,,,,,,,,,,,,,,,,,,,,,,,,,,,,,,,,,,,,,,,,,,,,,,,,,,,,,,,,,,,,,,,,
143,1729786147.9183412,25060,0,33.63653855814014,72.99143757921662,1.25,,,,,,,,1729786133.3593185,186,1729786124,-0.222680692,-0.133109454,1.719,0.020041797,0.008745983,-0.938355612,0,-0.02,-0.01,1729786133.3519788,188,1729786124,0.02008433,0.008765712,-0.938354764,0.3449784333281861,0.00016572,0.000495242,-0.000119188,,,,,,,,,,,,,,,,,,1729786124,498.9935218075283,72.9914885,33.6365622,13,,,,,,,,,,,,,,,,,,,,,
144,1729786147.918367,25061,0,33.63653855814014,72.99143757921662,1.25,1729786133.7192092,279,1729786133,0.078000002,0.01,0,-0.01,,,,,,,,,,,,,,,,,,,,,,,1729786133.3560877,261,1729786132,1000,1000,1000,1000,0,,,,,,,,,,,,,,,,,,,,,,,,,,,,,,,,,,,
145,1729786147.918389,25062,0,33.63653855814014,72.99143757921662,1.25,,,,,,,,,,,,,,,,,,,,,,,,,,,,,,,,,,,,,,,,,,,,,,,,,,,,,,,,,,,,,,,,,,,,,,,,
146,1729786147.9184968,25063,0,33.63653855814014,72.99143757921662,1.25,,,,,,,,,,,,,,,,,,,,,,,,,,,,,,,,,,,,,,,,,,,,,,,,,,,,,,,,,,,1729786133.3563232,732,1,0,0,1,3,,,,,,,
147,1729786147.918519,25064,0,33.63653855814014,72.99143757921662,1.25,,,,,,,,,,,,,,,,,,,,,,,,,,,,,,,,,,,,,,,,,,,,,,,,,,,,,,,,,,,,,,,,,,,,,,,,
148,1729786147.918631,25065,0,33.63653855814014,72.99143757921662,1.25,,,,,,,,,,,,,,,,,,,,,,,,,,,,,,,,,,,,,,,,,,,,,,,,,,,,,,,,,,,,,,,,,,,,,,,,
149,1729786147.921306,25066,0,33.63653855814014,72.99143757921662,1.25,,,,,,,,,,,,,,,,,,,,,,,,,,,,,,,,,,,,,,,,,,,,,,,,,,,,,,,,,,,,,,,,,,,,,,,,
150,1729786147.9213314,25067,0,33.63653855814014,72.99143757921662,1.25,,,,,,,,,,,,,,,,,,,,,,,,,,,,,,,,,,,,,,,,,,,,,,,,,,,,,,,,,,,,,,,,,,,,,,,,
151,1729786147.9213536,25068,0,33.63653855814014,72.99143757921662,1.25,,,,,,,,,,,,,,,,,,,,,,,,,,,,,,,,,,,,,,,,,,,,,,,,,,,,,,,,,,,,,,,,,,,,,,,,
152,1729786147.921588,25069,0,33.63653855814014,72.99143757921662,1.25,,,,,,,,,,,,,,,,,,,,,,,,,,,,,,,,,,,,,,,,,,,,,,,,,,,,,,,,,,,,,,,,,,,,,,,,
153,1729786147.9216132,25070,0,33.63653855814014,72.99143757921662,1.25,,,,,,,,,,,,,,,,,,,,,,,,,,,,,,,,,,,,,,1729786134.3104022,284,1729786134,0.01131684,0.0050192,229,0,545.5599975585938,-0.010142903,,,,,,,,,,,,,,,,,,,,,,,,,,
154,1729786147.9220636,25071,0,33.63653855814014,72.99143757921662,1.25,,,,,,,,,,,,,,,,,,,,,,,,,,,,,,,,,,,,,,,,,,,,,,,,,,,,,,,,,,,,,,,,,,,,,,,,
155,1729786147.922201,25072,0,33.63653855814014,72.99143757921662,1.25,,,,,,,,,,,,,,,,,,,,,,,,,,,,,,,,,,,,,,,,,,,,,,,,,,,,,,,,,,,,,,,,,,,,,,,,
156,1729786147.9222288,25073,0,33.63653855814014,72.99143757921662,1.25,,,,,,,,1729786133.3598557,187,1729786124,-0.222680692,-0.133109454,1.712,0.020060191,0.008763805,-0.938357251,0,-0.03,-0.01,1729786133.3520896,189,1729786124,0.02008385,0.008739984,-0.938353361,0.34498293,0.000479016,-0.000714032,-0.000101784,,,,,,,,,,,,,,,,,,1729786124,498.9935218075283,72.9914885,33.6365622,13,,,,,,,,,,,,,,,,,,,,,
157,1729786147.9224036,25074,0,33.63653855814014,72.99143757921662,1.25,,,,,,,,,,,,,,,,,,,,,,,,,,,,,,,,,,,,,,,,,,,,,,,,,,,,,,,,,,,,,,,,,,,,,,,,
158,1729786147.9224298,25075,0,33.63653855814014,72.99143757921662,1.25,,,,,,,,,,,,,,,,,,,,,,,,,,,,,,,,,,,,,,,,,,,,,,,,,,,,,,,,,,,,,,,,,,,,,,,,
159,1729786147.922551,25076,0,33.63653855814014,72.99143757921662,1.25,,,,,,,,,,,,,,,,,,,,,,,,,,,,,,,,,,,,,,,,,,,,,,,,,,,,,,,,,,,,,,,,,,,,,,,,
160,1729786147.9227123,25077,0,33.63653855814014,72.99143757921662,1.25,1729786133.820606,280,1729786133,0.079000004,0.01,0,-0.01,,,,,,,,,,,,,,,,,,,,,,,1729786133.3563695,262,1729786132,1000,1000,1000,1000,0,,,,,,,,,,,,,,,,,,,,,,,,,,,,,,,,,,,
161,1729786147.922738,25078,0,33.63653855814014,72.99143757921662,1.25,,,,,,,,,,,,,,,,,,,,,,,,,,,,,,,,,,,,,,,,,,,,,,,,,,,,,,,,,,,,,,,,,,,,,,,,
162,1729786147.9253445,25079,0,33.63653855814014,72.99143757921662,1.25,,,,,,,,,,,,,,,,,,,,,,,,,,,,,,,,,,,,,,,,,,,,,,,,,,,,,,,,,,,,,,,,,,,,,,,,
163,1729786147.925373,25080,0,33.63653855814014,72.99143757921662,1.25,,,,,,,,,,,,,,,,,,,,,,,,,,,,,,,,,,,,,,,,,,,,,,,,,,,,,,,,,,,,,,,,,,,,,,,,
164,1729786147.9261234,25081,0,33.63653855814014,72.99143757921662,1.25,,,,,,,,,,,,,,,,,,,,,,,,,,,,,,,,,,,,,,,,,,,,,,,,,,,,,,,,,,,,,,,,,,,,,,,,
165,1729786147.9261594,25082,0,33.63653855814014,72.99143757921662,1.25,,,,,,,,,,,,,,,,,,,,,,,,,,,,,,,,,,,,,,,,,,,,,,,,,,,,,,,,,,,,,,,,,,,,,,,,
166,1729786147.9261887,25083,0,33.63653855814014,72.99143757921662,1.25,,,,,,,,,,,,,,,,,,,,,,,,,,,,,,,,,,,,,,,,,,,,,,,,,,,,,,,,,,,,,,,,,,,,,,,,
167,1729786147.926211,25084,0,33.63653855814014,72.99143757921662,1.25,,,,,,,,,,,,,,,,,,,,,,,,,,,,,,,,,,,,,,,,,,,,,,,,,,,,,,,,,,,,,,,,,,,,,,,,
168,1729786147.9275205,25085,0,33.63653855814014,72.99143757921662,1.25,,,,,,,,,,,,,,,,,,,,,,,,,,,,,,,,,,,,,,,,,,,,,,,,,,,,,,,,,,,,,,,,,,,,,,,,
169,1729786147.9275663,25086,0,33.63653855814014,72.99143757921662,1.25,,,,,,,,1729786133.3664253,188,1729786124,-0.231959055,-0.144201909,1.717,0.02008433,0.008765712,-0.938354764,0,-0.03,-0.01,1729786133.3521657,190,1729786124,0.020047089,0.008717579,-0.93834955,0.3449960004146295,0.000953352,-0.00052755,-0.000576999,,,,,,,,,,,,,,,,,,1729786124,498.9935207979875,72.9914884,33.6365621,13,,,,,,,,,,,,,,,,,,,,,
170,1729786147.9276052,25087,0,33.63653855814014,72.99143757921662,1.25,,,,,,,,,,,,,,,,,,,,,,,,,,,,,,,,,,,,,,1729786134.410226,285,1729786134,0.010923851,0.005980393,229,0,545.5599975585938,-0.009141412,,,,,,,,,,,,,,,,,,,,,,,,,,
171,1729786147.9276357,25088,0,33.63653855814014,72.99143757921662,1.25,,,,,,,,,,,,,,,,,,,,,,,,,,,,,,,,,,,,,,,,,,,,,,,,,,,,,,,,,,,,,,,,,,,,,,,,
172,1729786147.9276755,25089,0,33.63653855814014,72.99143757921662,1.25,,,,,,,,,,,,,,,,,,,,,,,,,,,,,,,,,,,,,,,,,,,,,,,,,,,,,,,,,,,,,,,,,,,,,,,,
173,1729786147.9277108,25090,0,33.63653855814014,72.99143757921662,1.25,,,,,,,,,,,,,,,,,,,,,,,,,,,,,,,,,,,,,,,,,,,,,,,,,,,,,,,,,,,,,,,,,,,,,,,,
174,1729786147.9278562,25091,0,33.63653855814014,72.99143757921662,1.25,,,,,,,,,,,,,,,,,,,,,,,,,,,,,,,,,,,,,,,,,,,,,,,,,,,,,,,,,,,,,,,,,,,,,,,,
175,1729786147.9278915,25092,0,33.63653855814014,72.99143757921662,1.25,,,,,,,,,,,,,,,,,,,,,,,,,,,,,,,,,,,,,,,,,,,,,,,,,,,,1729786145.2288132,5,1729786145,33.6365386,72.9914393,547,1.5707963705062866,,,,,,,,,,,,,,
176,1729786148,25093,0,33.63653855814014,72.99143757921662,1.25,1729786133.9191885,281,1729786133,0.077,0.01,0,-0.01,,,,,,,,,,,,,,,,,,,,,,,1729786133.356819,263,1729786132,1000,1000,1000,1000,0,,,,,,,,,,,,,,,,,,,,,,,,,,,,,,,,,,,
177,1729786147.9309776,25094,0,33.63653855814014,72.99143757921662,1.25,,,,,,,,,,,,,,,,,,,,,,,,,,,,,,,,,,,,,,,,,,,,,,,,,,,,,,,,,,,,,,,,,,,,,,,,
178,1729786147.9310262,25095,0,33.63653855814014,72.99143757921662,1.25,,,,,,,,,,,,,,,,,,,,,,,,,,,,,,,,,,,,,,,,,,,,,,,,,,,,,,,,,,,,,,,,,,,,,,,,
179,1729786147.931063,25096,0,33.63653855814014,72.99143757921662,1.25,,,,,,,,,,,,,,,,,,,,,,,,,,,,,,,,,,,,,,,,,,,,,,,,,,,,,,,,,,,,,,,,,,,,,,,,
180,1729786147.931106,25097,0,33.63653855814014,72.99143757921662,1.25,,,,,,,,,,,,,,,,,,,,,,,,,,,,,,,,,,,,,,,,,,,,,,,,,,,,,,,,,,,,,,,,,,,,,,,,
181,1729786147.9311554,25098,0,33.63653855814014,72.99143757921662,1.25,,,,,,,,,,,,,,,,,,,,,,,,,,,,,,,,,,,,,,,,,,,,,,,,,,,,,,,,,,,,,,,,,,,,,,,,
182,1729786147.9311872,25099,0,33.63653855814014,72.99143757921662,1.25,,,,,,,,1729786133.3680782,189,1729786124,-0.231959056,-0.14420191,1.725,0.02008385,0.008739984,-0.938353361,0,-0.03,-0.02,1729786133.3521922,191,1729786125,0.020018245,0.008713833,-0.938340961,0.3450211301576647,-0.001033178,0.000116719,2.39256769418715e-06,,,,,,,,,,,,,,,,,,1729786124,499.0035207979875,72.9914884,33.6365621,13,,,,,,,,,,,,,,,,,,,,,
183,1729786147.9313748,25100,0,33.63653855814014,72.99143757921662,1.25,,,,,,,,,,,,,,,,,,,,,,,,,,,,,,,,,,,,,,,,,,,,,,,,,,,,,,,,,,,,,,,,,,,,,,,,
184,1729786147.9314926,25101,0,33.63653855814014,72.99143757921662,1.25,,,,,,,,,,,,,,,,,,,,,,,,,,,,,,,,,,,,,,,,,,,,,,,,,,,,,,,,,,,,,,,,,,,,,,,,
185,1729786147.931522,25102,0,33.63653855814014,72.99143757921662,1.25,,,,,,,,,,,,,,,,,,,,,,,,,,,,,,,,,,,,,,,,,,,,,,,,,,,,,,,,,,,,,,,,,,,,,,,,
186,1729786147.9315455,25103,0,33.63653855814014,72.99143757921662,1.25,,,,,,,,,,,,,,,,,,,,,,,,,,,,,,,,,,,,,,,,,,,,,,,,,,,,,,,,,,,,,,,,,,,,,,,,
187,1729786147.9316163,25104,0,33.63653855814014,72.99143757921662,1.25,,,,,,,,,,,,,,,,,,,,,,,,,,,,,,,,,,,,,,1729786134.510722,286,1729786134,0.01222822,0.006179315,229,0,545.5499877929688,-0.010552034,,,,,,,,,,,,,,,,,,,,,,,,,,
188,1729786147.931657,25105,0,33.63653855814014,72.99143757921662,1.25,,,,,,,,,,,,,,,,,,,,,,,,,,,,,,,,,,,,,,,,,,,,,,,,,,,,,,,,,,,,,,,,,,,,,,,,
189,1729786147.9316802,25106,0,33.63653855814014,72.99143757921662,1.25,,,,,,,,,,,,,,,,,,,,,,,,,,,,,,,,,,,,,,,,,,,,,,,,,,,,,,,,,,,,,,,,,,,,,,,,
190,1729786147.931749,25107,0,33.63653855814014,72.99143757921662,1.25,,,,,,,,,,,,,,,,,,,,,,,,,,,,,,,,,,,,,,,,,,,,,,,,,,,,,,,,,,,,,,,,,,,,,,,,
191,1729786147.934334,25108,0,33.63653855814014,72.99143757921662,1.25,,,,,,,,,,,,,,,,,,,,,,,,,,,,,,,,,,,,,,,,,,,,,,,,,,,,,,,,,,,,,,,,,,,,,,,,
192,1729786147.9343662,25109,0,33.63653855814014,72.99143757921662,1.25,1729786134.0197375,282,1729786134,0.079000004,0.01,0,-0.01,,,,,,,,,,,,,,,,,,,,,,,1729786133.356845,264,1729786132,1000,1000,1000,1000,0,,,,,,,,,,,,,,,,,,,,,,,,,,,,,,,,,,,
193,1729786147.9343894,25110,0,33.63653855814014,72.99143757921662,1.25,,,,,,,,,,,,,,,,,,,,,,,,,,,,,,,,,,,,,,,,,,,,,,,,,,,,,,,,,,,,,,,,,,,,,,,,
194,1729786147.934414,25111,0,33.63653855814014,72.99143757921662,1.25,,,,,,,,,,,,,,,,,,,,,,,,,,,,,,,,,,,,,,,,,,,,,,,,,,,,,,,,,,,,,,,,,,,,,,,,
195,1729786147.9344728,25112,0,33.63653855814014,72.99143757921662,1.25,,,,,,,,1729786133.368161,190,1729786124,-0.241237418,-0.155294364,1.729,0.020047089,0.008717579,-0.93834955,0,-0.03,-0.02,1729786133.3523114,192,1729786125,0.020029476,0.008721329,-0.938330381,0.3450490616707667,0.000148159,0.000757143,0.00026679,,,,,,,,,,,,,,,,,,1729786124,499.00351978844685,72.9914883,33.636562,13,,,,,,,,,,,,,,,,,,,,,
196,1729786147.9345074,25113,0,33.63653855814014,72.99143757921662,1.25,,,,,,,,,,,,,,,,,,,,,,,,,,,,,,,,,,,,,,,,,,,,,,,,,,,,,,,,,,,,,,,,,,,,,,,,
197,1729786147.9345348,25114,0,33.63653855814014,72.99143757921662,1.25,,,,,,,,,,,,,,,,,,,,,,,,,,,,,,,,,,,,,,,,,,,,,,,,,,,,,,,,,,,,,,,,,,,,,,,,
198,1729786147.935618,25115,0,33.63653855814014,72.99143757921662,1.25,,,,,,,,,,,,,,,,,,,,,,,,,,,,,,,,,,,,,,,,,,,,,,,,,,,,,,,,,,,,,,,,,,,,,,,,
199,1729786147.9358096,25116,0,33.63653855814014,72.99143757921662,1.25,,,,,,,,,,,,,,,,,,,,,,,,,,,,,,,,,,,,,,,,,,,,,,,,,,,,,,,,,,,,,,,,,,,,,,,,
200,1729786147.9358606,25117,0,33.63653855814014,72.99143757921662,1.25,,,,,,,,,,,,,,,,,,,,,,,,,,,,,,,,,,,,,,,,,,,,,,,,,,,,,,,,,,,,,,,,,,,,,,,,
201,1729786147.935886,25118,0,33.63653855814014,72.99143757921662,1.25,,,,,,,,,,,,,,,,,,,,,,,,,,,,,,,,,,,,,,,,,,,,,,,,,,,,,,,,,,,,,,,,,,,,,,,,
202,1729786147.9359095,25119,0,33.63653855814014,72.99143757921662,1.25,,,,,,,,,,,,,,,,,,,,,,,,,,,,,,,,,,,,,,,,,,,,,,,,,,,,,,,,,,,,,,,,,,,,,,,,
203,1729786147.9359322,25120,0,33.63653855814014,72.99143757921662,1.25,,,,,,,,,,,,,,,,,,,,,,,,,,,,,,,,,,,,,,,,,,,,,,,,,,,,,,,,,,,,,,,,,,,,,,,,
204,1729786147.936002,25121,0,33.63653855814014,72.99143757921662,1.25,,,,,,,,,,,,,,,,,,,,,,,,,,,,,,,,,,,,,,1729786134.609758,287,1729786134,0.011378472,0.006552673,229,0,545.5599975585938,-0.009302263,,,,,,,,,,,,,,,,,,,,,,,,,,
205,1729786147.9360583,25122,0,33.63653855814014,72.99143757921662,1.25,,,,,,,,,,,,,,,,,,,,,,,,,,,,,,,,,,,,,,,,,,,,,,,,,,,,,,,,,,,,,,,,,,,,,,,,
206,1729786147.9360807,25123,0,33.63653855814014,72.99143757921662,1.25,,,,,,,,,,,,,,,,,,,,,,,,,,,,,,,,,,,,,,,,,,,,,,,,,,,,,,,,,,,,,,,,,,,,,,,,
207,1729786147.937914,25124,0,33.63653855814014,72.99143757921662,1.25,,,,,,,,,,,,,,,,,,,,,,,,,,,,,,,,,,,,,,,,,,,,,,,,,,,,,,,,,,,,,,,,,,,,,,,,
208,1729786147.9379525,25125,0,33.63653855814014,72.99143757921662,1.25,1729786134.1221817,283,1729786134,0.079999998,0.01,0,-0.01,1729786133.3697364,191,1729786125,-0.241237418,-0.155294365,1.73,0.020018245,0.008713833,-0.938340961,0,-0.03,-0.01,1729786133.352377,193,1729786125,0.020042853,0.008721,-0.9383256,0.3450612943978045,-0.000652518,-1.57E-05,0.000365304,1729786133.3571632,265,1729786132,1000,1000,1000,1000,0,,,,,,,,,,1729786125,499.0135197884469,72.9914883,33.636562,13,,,,,,,,,,,,,,,,,,,,,
209,1729786147.9379814,25126,0,33.63653855814014,72.99143757921662,1.25,,,,,,,,,,,,,,,,,,,,,,,,,,,,,,,,,,,,,,,,,,,,,,,,,,,,,,,,,,,,,,,,,,,,,,,,
210,1729786147.9380057,25127,0,33.63653855814014,72.99143757921662,1.25,,,,,,,,,,,,,,,,,,,,,,,,,,,,,,,,,,,,,,,,,,,,,,,,,,,,1729786145.3240783,6,1729786145,33.6365386,72.9914393,547,1.5707963705062866,,,,,,,,,,,,,1729786104.404809,5.7
211,1729786147.938087,25128,0,33.63653855814014,72.99143757921662,1.25,,,,,,,,,,,,,,,,,,,,,,,,,,,,,,,,,,,,,,,,,,,,,,,,,,,,,,,,,,,,,,,,,,,,,,,,
212,1729786147.9381113,25129,0,33.63653855814014,72.99143757921662,1.25,,,,,,,,,,,,,,,,,,,,,,,,,,,,,,,,,,,,,,,,,,,,,,,,,,,,,,,,,,,,,,,,,,,,,,,,
213,1729786147.9381337,25130,0,33.63653855814014,72.99143757921662,1.25,,,,,,,,,,,,,,,,,,,,,,,,,,,,,,,,,,,,,,,,,,,,,,,,,,,,,,,,,,,,,,,,,,,,,,,,
214,1729786147.9381714,25131,0,33.63653855814014,72.99143757921662,1.25,,,,,,,,,,,,,,,,,,,,,,,,,,,,,,,,,,,,,,,,,,,,,,,,,,,,,,,,,,,,,,,,,,,,,1729786102.229956,0,,
215,1729786147.9381971,25132,0,33.63653855814014,72.99143757921662,1.25,,,,,,,,,,,,,,,,,,,,,,,,,,,,,,,,,,,,,,,,,,,,,,,,,,,,,,,,,,,,,,,,,,,,,,,,
216,1729786147.9382515,25133,0,33.63653855814014,72.99143757921662,1.25,,,,,,,,,,,,,,,,,,,,,,,,,,,,,,,,,,,,,,,,,,,,,,,,,,,,,,,,,,,,,,,,,,,,,,,,
217,1729786147.938346,25134,0,33.63653855814014,72.99143757921662,1.25,,,,,,,,,,,,,,,,,,,,,,,,,,,,,,,,,,,,,,,,,,,,,,,,,,,,,,,,,,,,,,,,,,,,,,,,
218,1729786147.9383826,25135,0,33.63653855814014,72.99143757921662,1.25,,,,,,,,,,,,,,,,,,,,,,,,,,,,,,,,,,,,,,,,,,,,,,,,,,,,,,,,,,,,,,,,,,,,,,,,
219,1729786147.9384077,25136,0,33.63653855814014,72.99143757921662,1.25,,,,,,,,,,,,,,,,,,,,,,,,,,,,,,,,,,,,,,,,,,,,,,,,,,,,,,,,,,,,,,,,,,,,,,,,
220,1729786147.9384797,25137,0,33.63653855814014,72.99143757921662,1.25,,,,,,,,,,,,,,,,,,,,,,,,,,,,,,,,,,,,,,,,,,,,,,,,,,,,,,,,,,,,,,,,,,,,,,,,
221,1729786147.9385045,25138,0,33.63653855814014,72.99143757921662,1.25,,,,,,,,1729786133.3714535,192,1729786125,-0.25051578,-0.16638682,1.73,0.020029476,0.008721329,-0.938330381,0,-0.03,-0.02,1729786133.3524475,194,1729786125,0.019999478,0.008771942,-0.938324095,0.3450666106854971,-0.000553461,0.000376521,0.001057631,,,,,,,,,1729786134.7100005,288,1729786134,0.012378814,0.007423332,229,0,545.5599975585938,-0.009906015,1729786125,499.0135187789065,72.9914882,33.6365619,13,,,,,,,,,,,,,,,,,,,,,
222,1729786147.9385283,25139,0,33.63653855814014,72.99143757921662,1.25,,,,,,,,,,,,,,,,,,,,,,,,,,,,,,,,,,,,,,,,,,,,,,,,,,,,,,,,,,,,,,,,,,,,,,,,
223,1729786147.938603,25140,0,33.63653855814014,72.99143757921662,1.25,,,,,,,,,,,,,,,,,,,,,,,,,,,,,,,,,,,,,,,,,,,,,,,,,,,,,,,,,,,,,,,,,,,,,,,,
224,1729786147.9386363,25141,0,33.63653855814014,72.99143757921662,1.25,1729786134.2224133,284,1729786134,0.082999997,0.01,0,-0.01,,,,,,,,,,,,,,,,,,,,,,,1729786133.3636868,266,1729786132,1000,1000,1000,1000,0,,,,,,,,,,,,,,,,,,,,,,,,,,,,,,,,,,,
225,1729786147.938661,25142,0,33.63653855814014,72.99143757921662,1.25,,,,,,,,,,,,,,,,,,,,,,,,,,,,,,,,,,,,,,,,,,,,,,,,,,,,,,,,,,,,,,,,,,,,,,,,
226,1729786147.9387548,25143,0,33.63653855814014,72.99143757921662,1.25,,,,,,,,,,,,,,,,,,,,,,,,,,,,,,,,,,,,,,,,,,,,,,,,,,,,,,,,,,,,,,,,,,,,,,,,
227,1729786147.9387782,25144,0,33.63653855814014,72.99143757921662,1.25,,,,,,,,,,,,,,,,,,,,,,,,,,,,,,,,,,,,,,,,,,,,,,,,,,,,,,,,,,,,,,,,,,,,,,,,
228,1729786147.9400957,25145,0,33.63653855814014,72.99143757921662,1.25,,,,,,,,,,,,,,,,,,,,,,,,,,,,,,,,,,,,,,,,,,,,,,,,,,,,,,,,,,,,,,,,,,,,,,,,
229,1729786147.9401276,25146,0,33.63653855814014,72.99143757921662,1.25,,,,,,,,,,,,,,,,,,,,,,,,,,,,,,,,,,,,,,,,,,,,,,,,,,,,,,,,,,,,,,,,,,,,,,,,
230,1729786147.9401643,25147,0,33.63653855814014,72.99143757921662,1.25,,,,,,,,,,,,,,,,,,,,,,,,,,,,,,,,,,,,,,,,,,,,,,,,,,,,,,,,,,,,,,,,,,,,,,,,
231,1729786147.9402118,25148,0,33.63653855814014,72.99143757921662,1.25,,,,,,,,,,,,,,,,,,,,,,,,,,,,,,,,,,,,,,,,,,,,,,,,,,,,,,,,,,,,,,,,,,,,,,,,
232,1729786147.9402387,25149,0,33.63653855814014,72.99143757921662,1.25,,,,,,,,,,,,,,,,,,,,,,,,,,,,,,,,,,,,,,,,,,,,,,,,,,,,,,,,,,,,,,,,,,,,,,,,
233,1729786147.9402795,25150,0,33.63653855814014,72.99143757921662,1.25,,,,,,,,,,,,,,,,,,,,,,,,,,,,,,,,,,,,,,,,,,,,,,,,,,,,,,,,,,,,,,,,,,,,,,,,
234,1729786147.9403062,25151,0,33.63653855814014,72.99143757921662,1.25,,,,,,,,1729786133.3715386,193,1729786125,-0.250515779,-0.166386819,1.727,0.020042853,0.008721,-0.9383256,-0.01,-0.03,-0.02,1729786133.3525512,195,1729786125,0.019994947,0.008785893,-0.938322516,0.3450708134827931,0.000572318,0.001158424,-0.000349205,,,,,,,,,,,,,,,,,,1729786125,499.0035187789065,72.9914882,33.6365619,13,,,,,,,,,,,,,,,,,,,,,
235,1729786147.940328,25152,0,33.63653855814014,72.99143757921662,1.25,,,,,,,,,,,,,,,,,,,,,,,,,,,,,,,,,,,,,,,,,,,,,,,,,,,,,,,,,,,,,,,,,,,,,,,,
236,1729786147.9405742,25153,0,33.63653855814014,72.99143757921662,1.25,,,,,,,,,,,,,,,,,,,,,,,,,,,,,,,,,,,,,,,,,,,,,,,,,,,,,,,,,,,,,,,,,,,,,,,,
237,1729786147.9405992,25154,0,33.63653855814014,72.99143757921662,1.25,,,,,,,,,,,,,,,,,,,,,,,,,,,,,,,,,,,,,,,,,,,,,,,,,,,,,,,,,,,,,,,,,,,,,,,,
238,1729786147.9406564,25155,0,33.63653855814014,72.99143757921662,1.25,,,,,,,,,,,,,,,,,,,,,,,,,,,,,,,,,,,,,,1729786134.809844,289,1729786134,0.011198173,0.007450667,229,0,545.5599975585938,-0.008359823,,,,,,,,,,,,,,,,,,,,,,,,,,
239,1729786147.9407406,25156,0,33.63653855814014,72.99143757921662,1.25,,,,,,,,,,,,,,,,,,,,,,,,,,,,,,,,,,,,,,,,,,,,,,,,,,,,,,,,,,,,,,,,,,,,,,,,
240,1729786147.940776,25157,0,33.63653855814014,72.99143757921662,1.25,1729786134.3217418,285,1729786134,0.079000004,0.01,0,-0.01,,,,,,,,,,,,,,,,,,,,,,,1729786133.363737,267,1729786132,1000,1000,1000,1000,0,,,,,,,,,,,,,,,,,,,,,,,,,,,,,,,,,,,
241,1729786147.9408011,25158,0,33.63653855814014,72.99143757921662,1.25,,,,,,,,,,,,,,,,,,,,,,,,,,,,,,,,,,,,,,,,,,,,,,,,,,,,,,,,,,,,,,,,,,,,,,,,
242,1729786147.940824,25159,0,33.63653855814014,72.99143757921662,1.25,,,,,,,,,,,,,,,,,,,,,,,,,,,,,,,,,,,,,,,,,,,,,,,,,,,,,,,,,,,,,,,,,,,,,,,,
243,1729786148,25160,0,33.63653855814014,72.99143757921662,1.25,,,,,,,,,,,,,,,,,,,,,,,,,,,,,,,,,,,,,,,,,,,,,,,,,,,,,,,,,,,,,,,,,,,,,,,,
244,1729786147.940926,25161,0,33.63653855814014,72.99143757921662,1.25,,,,,,,,,,,,,,,,,,,,,,,,,,,,,,,,,,,,,,,,,,,,,,,,,,,,,,,,,,,,,,,,,,,,,,,,
245,1729786147.9409966,25162,0,33.63653855814014,72.99143757921662,1.25,,,,,,,,,,,,,,,,,,,,,,,,,,,,,,,,,,,,,,,,,,,,,,,,,,,,1729786145.420081,7,1729786145,33.6365386,72.9914391,547,1.5707963705062866,,,,,,,,,,,,,,
246,1729786147.941028,25163,0,33.63653855814014,72.99143757921662,1.25,,,,,,,,,,,,,,,,,,,,,,,,,,,,,,,,,,,,,,,,,,,,,,,,,,,,,,,,,,,,,,,,,,,,,,,,
247,1729786147.9410503,25164,0,33.63653855814014,72.99143757921662,1.25,,,,,,,,1729786133,194,1729786125,-0.25051578,-0.177479273,1.721,0.019999478,0.008771942,-0.938324095,0,-0.03,-0.01,1729786133.3526146,196,1729786125,0.019983425,0.008786193,-0.938320441,0.3450771148532436,-0.000383042,0.00039161,5.516223609447431e-06,,,,,,,,,,,,,,,,,,1729786125,499.00351816635407,72.9914882,33.6365618,13,,,,,,,,,,,,,,,,,,,,,
248,1729786147.9410713,25165,0,33.63653855814014,72.99143757921662,1.25,,,,,,,,,,,,,,,,,,,,,,,,,,,,,,,,,,,,,,,,,,,,,,,,,,,,,,,,,,,,,,,,,,,,,,,,
249,1729786147.9411268,25166,0,33.63653855814014,72.99143757921662,1.25,,,,,,,,,,,,,,,,,,,,,,,,,,,,,,,,,,,,,,,,,,,,,,,,,,,,,,,,,,,,,,,,,,,,,,,,
250,1729786147.9411502,25167,0,33.63653855814014,72.99143757921662,1.25,,,,,,,,,,,,,,,,,,,,,,,,,,,,,,,,,,,,,,,,,,,,,,,,,,,,,,,,,,,,,,,,,,,,,,,,
251,1729786147.941276,25168,0,33.63653855814014,72.99143757921662,1.25,,,,,,,,,,,,,,,,,,,,,,,,,,,,,,,,,,,,,,,,,,,,,,,,,,,,,,,,,,,,,,,,,,,,,,,,
252,1729786147.9438696,25169,0,33.63653855814014,72.99143757921662,1.25,,,,,,,,,,,,,,,,,,,,,,,,,,,,,,,,,,,,,,,,,,,,,,,,,,,,,,,,,,,,,,,,,,,,,,,,
253,1729786147.943894,25170,0,33.63653855814014,72.99143757921662,1.25,,,,,,,,,,,,,,,,,,,,,,,,,,,,,,,,,,,,,,,,,,,,,,,,,,,,,,,,,,,,,,,,,,,,,,,,
254,1729786147.9439833,25171,0,33.63653855814014,72.99143757921662,1.25,,,,,,,,,,,,,,,,,,,,,,,,,,,,,,,,,,,,,,,,,,,,,,,,,,,,,,,,,,,,,,,,,,,,,,,,
255,1729786147.9440084,25172,0,33.63653855814014,72.99143757921662,1.25,,,,,,,,,,,,,,,,,,,,,,,,,,,,,,,,,,,,,,1729786134.9108684,290,1729786134,0.008764362,0.00726779,229,0,545.5800170898438,-0.004898293,,,,,,,,,,,,,,,,,,,,,,,,,,
256,1729786147.9440413,25173,0,33.63653855814014,72.99143757921662,1.25,1729786134.4225311,286,1729786134,0.086000003,0.01,0,-0.01,,,,,,,,,,,,,,,,,,,,,,,1729786133.3637643,268,1729786132,1000,1000,1000,1000,0,,,,,,,,,,,,,,,,,,,,,,,,,,,,,,,,,,,
257,1729786147.944078,25174,0,33.63653855814014,72.99143757921662,1.25,,,,,,,,,,,,,,,,,,,,,,,,,,,,,,,,,,,,,,,,,,,,,,,,,,,,,,,,,,,,,,,,,,,,,,,,
258,1729786147.944126,25175,0,33.63653855814014,72.99143757921662,1.25,,,,,,,,,,,,,,,,,,,,,,,,,,,,,,,,,,,,,,,,,,,,,,,,,,,,,,,,,,,,,,,,,,,,,,,,
259,1729786147.9441526,25176,0,33.63653855814014,72.99143757921662,1.25,,,,,,,,,,,,,,,,,,,,,,,,,,,,,,,,,,,,,,,,,,,,,,,,,,,,,,,,,,,,,,,,,,,,,,,,
260,1729786147.9441817,25177,0,33.63653855814014,72.99143757921662,1.25,,,,,,,,1729786133.3736267,195,1729786125,-0.250515779,-0.188571728,1.711,0.019994947,0.008785893,-0.938322516,0,-0.03,-0.01,1729786133,197,1729786125,0.01998613,0.008787662,-0.938314124,0.3450940987891537,0.000112694,0.000545757,-1.16E-06,,,,,,,,,,,,,,,,,,1729786125,498.99351755380167,72.9914882,33.6365617,13,,,,,,,,,,,,,,,,,,,,,
261,1729786147.9442143,25178,0,33.63653855814014,72.99143757921662,1.25,,,,,,,,,,,,,,,,,,,,,,,,,,,,,,,,,,,,,,,,,,,,,,,,,,,,,,,,,,,,,,,,,,,,,,,,
262,1729786147.944275,25179,0,33.63653855814014,72.99143757921662,1.25,,,,,,,,,,,,,,,,,,,,,,,,,,,,,,,,,,,,,,,,,,,,,,,,,,,,,,,,,,,,,,,,,,,,,,,,
263,1729786147.9443011,25180,0,33.63653855814014,72.99143757921662,1.25,,,,,,,,,,,,,,,,,,,,,,,,,,,,,,,,,,,,,,,,,,,,,,,,,,,,,,,,,,,,,,,,,,,,,,,,
264,1729786147.944388,25181,0,33.63653855814014,72.99143757921662,1.25,,,,,,,,,,,,,,,,,,,,,,,,,,,,,,,,,,,,,,,,,,,,,,,,,,,,,,,,,,,,,,,,,,,,,,,,
265,1729786147.944454,25182,0,33.63653855814014,72.99143757921662,1.25,,,,,,,,,,,,,,,,,,,,,,,,,,,,,,,,,,,,,,,,,,,,,,,,,,,,,,,,,,,,,,,,,,,,,,,,
266,1729786147.9444768,25183,0,33.63653855814014,72.99143757921662,1.25,,,,,,,,,,,,,,,,,,,,,,,,,,,,,,,,,,,,,,,,,,,,,,,,,,,,,,,,,,,,,,,,,,,,,,,,
267,1729786147.9470067,25184,0,33.63653855814014,72.99143757921662,1.25,,,,,,,,,,,,,,,,,,,,,,,,,,,,,,,,,,,,,,,,,,,,,,,,,,,,,,,,,,,,,,,,,,,,,,,,
268,1729786147.9470446,25185,0,33.63653855814014,72.99143757921662,1.25,,,,,,,,,,,,,,,,,,,,,,,,,,,,,,,,,,,,,,,,,,,,,,,,,,,,,,,,,,,,,,,,,,,,,,,,
269,1729786147.9471436,25186,0,33.63653855814014,72.99143757921662,1.25,,,,,,,,,,,,,,,,,,,,,,,,,,,,,,,,,,,,,,,,,,,,,,,,,,,,,,,,,,,,,,,,,,,,,,,,
270,1729786147.9496636,25187,0,33.63653855814014,72.99143757921662,1.25,,,,,,,,,,,,,,,,,,,,,,,,,,,,,,,,,,,,,,,,,,,,,,,,,,,,,,,,,,,,,,,,,,,,,,,,
271,1729786147.9496963,25188,0,33.63653855814014,72.99143757921662,1.25,,,,,,,,,,,,,,,,,,,,,,,,,,,,,,,,,,,,,,,,,,,,,,,,,,,,,,,,,,,,,,,,,,,,,,,,
272,1729786147.949824,25189,0,33.63653855814014,72.99143757921662,1.25,1729786134.5225437,287,1729786134,0.082000002,0.01,0,-0.01,,,,,,,,,,,,,,,,,,,,,,,1729786133.3641112,269,1729786132,1000,1000,1000,1000,0,1729786135.010414,291,1729786135,0.006797836,0.006707427,229,0,545.5899658203125,-0.001104979,,,,,,,,,,,,,,,,,,,,,,,,,,
273,1729786147.9498558,25190,0,33.63653855814014,72.99143757921662,1.25,,,,,,,,1729786133.373705,196,1729786125,-0.250515779,-0.188571728,1.706,0.019983425,0.008786193,-0.938320441,0,-0.03,-0.01,1729786133.3528087,198,1729786125,0.020021037,0.008813271,-0.938311666,0.3450981032106154,0.000425963,0.000411086,0.000499703,,,,,,,,,,,,,,,,,,1729786125,498.9835175538017,72.9914882,33.6365617,13,,,,,,,,,,,,,,,,,,,,,
274,1729786147.949889,25191,0,33.63653855814014,72.99143757921662,1.25,,,,,,,,,,,,,,,,,,,,,,,,,,,,,,,,,,,,,,,,,,,,,,,,,,,,,,,,,,,,,,,,,,,,,,,,
275,1729786147.9499233,25192,0,33.63653855814014,72.99143757921662,1.25,,,,,,,,,,,,,,,,,,,,,,,,,,,,,,,,,,,,,,,,,,,,,,,,,,,,,,,,,,,,,,,,,,,,,,,,
276,1729786147.9499478,25193,0,33.63653855814014,72.99143757921662,1.25,,,,,,,,,,,,,,,,,,,,,,,,,,,,,,,,,,,,,,,,,,,,,,,,,,,,,,,,,,,,,,,,,,,,,,,,
277,1729786147.9499712,25194,0,33.63653855814014,72.99143757921662,1.25,,,,,,,,,,,,,,,,,,,,,,,,,,,,,,,,,,,,,,,,,,,,,,,,,,,,,,,,,,,,,,,,,,,,,,,,
278,1729786147.9500153,25195,0,33.63653855814014,72.99143757921662,1.25,,,,,,,,,,,,,,,,,,,,,,,,,,,,,,,,,,,,,,,,,,,,,,,,,,,,,,,,,,,,,,,,,,,,,,,,
279,1729786147.9500551,25196,0,33.63653855814014,72.99143757921662,1.25,,,,,,,,,,,,,,,,,,,,,,,,,,,,,,,,,,,,,,,,,,,,,,,,,,,,,,,,,,,,,,,,,,,,,,,,
280,1729786147.9500897,25197,0,33.63653855814014,72.99143757921662,1.25,,,,,,,,,,,,,,,,,,,,,,,,,,,,,,,,,,,,,,,,,,,,,,,,,,,,1729786146,8,1729786145,33.6365386,72.9914391,547,1.5707963705062866,,,,,,,,,,,,,1729786105.406843,5.7
281,1729786147.9501348,25198,0,33.63653855814014,72.99143757921662,1.25,,,,,,,,,,,,,,,,,,,,,,,,,,,,,,,,,,,,,,,,,,,,,,,,,,,,,,,,,,,,,,,,,,,,,,,,
282,1729786147.9501605,25199,0,33.63653855814014,72.99143757921662,1.25,,,,,,,,,,,,,,,,,,,,,,,,,,,,,,,,,,,,,,,,,,,,,,,,,,,,,,,,,,,,,,,,,,,,,,,,
283,1729786147.9504128,25200,0,33.63653855814014,72.99143757921662,1.25,,,,,,,,,,,,,,,,,,,,,,,,,,,,,,,,,,,,,,,,,,,,,,,,,,,,,,,,,,,,,,,,,,,,,,,,
284,1729786147.9504385,25201,0,33.63653855814014,72.99143757921662,1.25,,,,,,,,,,,,,,,,,,,,,,,,,,,,,,,,,,,,,,,,,,,,,,,,,,,,,,,,,,,,,,,,,,,,,,,,
285,1729786147.9504626,25202,0,33.63653855814014,72.99143757921662,1.25,,,,,,,,,,,,,,,,,,,,,,,,,,,,,,,,,,,,,,,,,,,,,,,,,,,,,,,,,,,,,,,,,,,,,,,,
286,1729786147.950493,25203,0,33.63653855814014,72.99143757921662,1.25,,,,,,,,1729786133,197,1729786125,-0.25051578,-0.199664183,1.71,0.01998613,0.008787662,-0.938314124,0,-0.03,-0.01,1729786133.3531437,199,1729786125,0.020037985,0.008810706,-0.938302912,0.3451209866333806,-0.000130769,0.000387216,0.000411283,,,,,,,,,,,,,,,,,,1729786125,498.99351694124937,72.9914882,33.6365616,13,,,,,,,,,,,,,,,,,,,,,
287,1729786147.9505525,25204,0,33.63653855814014,72.99143757921662,1.25,,,,,,,,,,,,,,,,,,,,,,,,,,,,,,,,,,,,,,,,,,,,,,,,,,,,,,,,,,,,,,,,,,,,,,,,
288,1729786147.9505782,25205,0,33.63653855814014,72.99143757921662,1.25,1729786134.6194725,288,1729786134,0.081,0.01,0,-0.01,,,,,,,,,,,,,,,,,,,,,,,1729786133.3673432,270,1729786132,1000,1000,1000,1000,0,,,,,,,,,,,,,,,,,,,,,,,,,,,,,,,,,,,
289,1729786147.9507391,25206,0,33.63653855814014,72.99143757921662,1.25,,,,,,,,,,,,,,,,,,,,,,,,,,,,,,,,,,,,,,1729786135.110299,292,1729786135,0.006960932,0.006846242,229,0,545.5999755859375,-0.001258387,,,,,,,,,,,,,,,,,,,,,,,,,,
290,1729786147.9507654,25207,0,33.63653855814014,72.99143757921662,1.25,,,,,,,,,,,,,,,,,,,,,,,,,,,,,,,,,,,,,,,,,,,,,,,,,,,,,,,,,,,,,,,,,,,,,,,,
291,1729786147.950794,25208,0,33.63653855814014,72.99143757921662,1.25,,,,,,,,,,,,,,,,,,,,,,,,,,,,,,,,,,,,,,,,,,,,,,,,,,,,,,,,,,,,,,,,,,,,,,,,
292,1729786147.9508271,25209,0,33.63653855814014,72.99143757921662,1.25,,,,,,,,,,,,,,,,,,,,,,,,,,,,,,,,,,,,,,,,,,,,,,,,,,,,,,,,,,,1729786133.946205,733,1,0,0,1,3,,,,,,,
293,1729786147.951067,25210,0,33.63653855814014,72.99143757921662,1.25,,,,,,,,,,,,,,,,,,,,,,,,,,,,,,,,,,,,,,,,,,,,,,,,,,,,,,,,,,,,,,,,,,,,,,,,
294,1729786147.9511971,25211,0,33.63653855814014,72.99143757921662,1.25,,,,,,,,,,,,,,,,,,,,,,,,,,,,,,,,,,,,,,,,,,,,,,,,,,,,,,,,,,,,,,,,,,,,,,,,
295,1729786147.9512162,25212,0,33.63653855814014,72.99143757921662,1.25,,,,,,,,,,,,,,,,,,,,,,,,,,,,,,,,,,,,,,,,,,,,,,,,,,,,,,,,,,,,,,,,,,,,,,,,
296,1729786147.951234,25213,0,33.63653855814014,72.99143757921662,1.25,,,,,,,,,,,,,,,,,,,,,,,,,,,,,,,,,,,,,,,,,,,,,,,,,,,,,,,,,,,,,,,,,,,,,,,,
297,1729786147.9515464,25214,0,33.63653855814014,72.99143757921662,1.25,,,,,,,,,,,,,,,,,,,,,,,,,,,,,,,,,,,,,,,,,,,,,,,,,,,,,,,,,,,,,,,,,,,,,,,,
298,1729786147.9515696,25215,0,33.63653855814014,72.99143757921662,1.25,,,,,,,,,,,,,,,,,,,,,,,,,,,,,,,,,,,,,,,,,,,,,,,,,,,,,,,,,,,,,,,,,,,,,,,,
299,1729786147.9515886,25216,0,33.63653855814014,72.99143757921662,1.25,,,,,,,,1729786133.3738704,198,1729786125,-0.259794144,-0.210756638,1.712,0.020021037,0.008813271,-0.938311666,0,-0.04,-0.01,1729786133.3532796,200,1729786125,0.020000132,0.008821926,-0.938294609,0.3451454707387989,-0.001513546,7.019750773906719e-05,0.000913309,,,,,,,,,,,,,,,,,,1729786125,498.9935159317095,72.9914881,33.6365615,13,,,,,,,,,,,,,,,,,,,,,
300,1729786148,25217,0,33.63653855814014,72.99143757921662,1.25,,,,,,,,,,,,,,,,,,,,,,,,,,,,,,,,,,,,,,,,,,,,,,,,,,,,,,,,,,,,,,,,,,,,,,,,
301,1729786147.9527133,25218,0,33.63653855814014,72.99143757921662,1.25,,,,,,,,,,,,,,,,,,,,,,,,,,,,,,,,,,,,,,,,,,,,,,,,,,,,,,,,,,,,,,,,,,,,,,,,
302,1729786147.952742,25219,0,33.63653855814014,72.99143757921662,1.25,,,,,,,,,,,,,,,,,,,,,,,,,,,,,,,,,,,,,,,,,,,,,,,,,,,,,,,,,,,,,,,,,,,,,,,,
303,1729786147.9528203,25220,0,33.63653855814014,72.99143757921662,1.25,,,,,,,,,,,,,,,,,,,,,,,,,,,,,,,,,,,,,,,,,,,,,,,,,,,,,,,,,,,,,,,,,,,,,,,,
304,1729786147.9528549,25221,0,33.63653855814014,72.99143757921662,1.25,1729786134.721312,289,1729786134,0.082000002,0.01,0,-0.01,,,,,,,,,,,,,,,,,,,,,,,1729786133.3673892,271,1729786133,1000,1000,1000,1000,0,,,,,,,,,,,,,,,,,,,,,,,,,,,,,,,,,,,
305,1729786147.9528766,25222,0,33.63653855814014,72.99143757921662,1.25,,,,,,,,,,,,,,,,,,,,,,,,,,,,,,,,,,,,,,,,,,,,,,,,,,,,,,,,,,,,,,,,,,,,,,,,
306,1729786147.952895,25223,0,33.63653855814014,72.99143757921662,1.25,,,,,,,,,,,,,,,,,,,,,,,,,,,,,,,,,,,,,,1729786135.2098322,293,1729786135,0.007309307,0.007308329,229,0,545.5999755859375,0.000119513,,,,,,,,,,,,,,,,,,,,,,,,,,
307,1729786147.9533398,25224,0,33.63653855814014,72.99143757921662,1.25,,,,,,,,,,,,,,,,,,,,,,,,,,,,,,,,,,,,,,,,,,,,,,,,,,,,,,,,,,,,,,,,,,,,,,,,
308,1729786147.9533703,25225,0,33.63653855814014,72.99143757921662,1.25,,,,,,,,,,,,,,,,,,,,,,,,,,,,,,,,,,,,,,,,,,,,,,,,,,,,,,,,,,,,,,,,,,,,,,,,
309,1729786147.9534063,25226,0,33.63653855814014,72.99143757921662,1.25,,,,,,,,,,,,,,,,,,,,,,,,,,,,,,,,,,,,,,,,,,,,,,,,,,,,,,,,,,,,,,,,,,,,,,,,
310,1729786147.9534354,25227,0,33.63653855814014,72.99143757921662,1.25,,,,,,,,,,,,,,,,,,,,,,,,,,,,,,,,,,,,,,,,,,,,,,,,,,,,,,,,,,,,,,,,,,,,,,,,
311,1729786147.9534554,25228,0,33.63653855814014,72.99143757921662,1.25,,,,,,,,,,,,,,,,,,,,,,,,,,,,,,,,,,,,,,,,,,,,,,,,,,,,,,,,,,,,,,,,,,,,,,,,
312,1729786147.953474,25229,0,33.63653855814014,72.99143757921662,1.25,,,,,,,,1729786133.3741632,199,1729786125,-0.259794144,-0.210756638,1.712,0.020037985,0.008810706,-0.938302912,0,-0.04,-0.01,1729786133,201,1729786126,0.019954259,0.008822048,-0.93829434,0.3451488522467492,-1.42E-05,-9.12E-05,0.000398757,,,,,,,,,,,,,,,,,,1729786125,498.9935159317095,72.9914881,33.6365615,13,,,,,,,,,,,,,,,,,,,,,
313,1729786147.9536784,25230,0,33.63653855814014,72.99143757921662,1.25,,,,,,,,,,,,,,,,,,,,,,,,,,,,,,,,,,,,,,,,,,,,,,,,,,,,,,,,,,,,,,,,,,,,,,,,
314,1729786147.9536989,25231,0,33.63653855814014,72.99143757921662,1.25,,,,,,,,,,,,,,,,,,,,,,,,,,,,,,,,,,,,,,,,,,,,,,,,,,,,,,,,,,,,,,,,,,,,,,,,
315,1729786147.9537177,25232,0,33.63653855814014,72.99143757921662,1.25,,,,,,,,,,,,,,,,,,,,,,,,,,,,,,,,,,,,,,,,,,,,,,,,,,,,1729786145.6193202,9,1729786145,33.6365386,72.9914391,547,1.5707963705062866,,,,,,,,,,,,,,
316,1729786147.9537363,25233,0,33.63653855814014,72.99143757921662,1.25,,,,,,,,,,,,,,,,,,,,,,,,,,,,,,,,,,,,,,,,,,,,,,,,,,,,,,,,,,,,,,,,,,,,,,,,
317,1729786147.953781,25234,0,33.63653855814014,72.99143757921662,1.25,,,,,,,,,,,,,,,,,,,,,,,,,,,,,,,,,,,,,,,,,,,,,,,,,,,,,,,,,,,,,,,,,,,,,,,,
318,1729786147.953797,25235,0,33.63653855814014,72.99143757921662,1.25,,,,,,,,,,,,,,,,,,,,,,,,,,,,,,,,,,,,,,,,,,,,,,,,,,,,,,,,,,,,,,,,,,,,,,,,
319,1729786147.9539733,25236,0,33.63653855814014,72.99143757921662,1.25,,,,,,,,,,,,,,,,,,,,,,,,,,,,,,,,,,,,,,,,,,,,,,,,,,,,,,,,,,,,,,,,,,,,,,,,
320,1729786147.9540017,25237,0,33.63653855814014,72.99143757921662,1.25,1729786134.8205848,290,1729786134,0.079999998,0.01,0,-0.01,,,,,,,,,,,,,,,,,,,,,,,1729786133.370797,272,1729786133,1000,1000,1000,1000,0,,,,,,,,,,,,,,,,,,,,,,,,,,,,,,,,,,,
321,1729786147.9540222,25238,0,33.63653855814014,72.99143757921662,1.25,,,,,,,,,,,,,,,,,,,,,,,,,,,,,,,,,,,,,,,,,,,,,,,,,,,,,,,,,,,,,,,,,,,,,,,,
322,1729786147.954041,25239,0,33.63653855814014,72.99143757921662,1.25,,,,,,,,,,,,,,,,,,,,,,,,,,,,,,,,,,,,,,,,,,,,,,,,,,,,,,,,,,,,,,,,,,,,,,,,
