S.No,setpoint_raw-global_Time,setpoint_raw-global_header.seq,setpoint_raw-global_header.stamp.secs,setpoint_raw-global_latitude,setpoint_raw-global_longitude,setpoint_raw-global_altitude,battery_Time,battery_header.seq,battery_header.stamp.secs,battery_voltage,battery_current,battery_temperature,battery_percentage,global_position-local_Time,global_position-local_header.seq,global_position-local_header.stamp.secs,global_position-local_pose.pose.position.x,global_position-local_pose.pose.position.y,global_position-local_pose.pose.position.z,global_position-local_pose.pose.orientation.x,global_position-local_pose.pose.orientation.y,global_position-local_pose.pose.orientation.z,global_position-local_twist.twist.linear.x,global_position-local_twist.twist.linear.y,global_position-local_twist.twist.linear.z,imu-data_Time,imu-data_header.seq,imu-data_header.stamp.secs,imu-data_orientation.x,imu-data_orientation.y,imu-data_orientation.z,imu-data_orientation.w,imu-data_angular_velocity.x,imu-data_angular_velocity.y,imu-data_angular_velocity.z,rc-out_Time,rc-out_header.seq,rc-out_header.stamp.secs,rc-out_channels_0,rc-out_channels_1,rc-out_channels_2,rc-out_channels_3,rc-out_channels_4,vfr_hud_Time,vfr_hud_header.seq,vfr_hud_header.stamp.secs,vfr_hud_airspeed,vfr_hud_groundspeed,vfr_hud_heading,vfr_hud_throttle,vfr_hud_altitude,vfr_hud_climb,global_position-global_header.stamp.secs,global_position-global_altitude,global_position-global_longitude,global_position-global_latitude,global_position-raw-satellites_data,setpoint_raw-target_global_Time,setpoint_raw-target_global_header.seq,setpoint_raw-target_global_header.stamp.secs,setpoint_raw-target_global_latitude,setpoint_raw-target_global_longitude,setpoint_raw-target_global_altitude,setpoint_raw-target_global_yaw,state_Time,state_header.seq,state_connected,state_armed,state_guided,state_manual_input,state_system_status,RSSI_Time,RSSI_Quality,RSSI_Signal,CPU_Time,CPU_Percent,RAM_Time,Used_RAM_MB
0,1729688240.298032,59,0,33.63709007783297,72.99130232108722,1.25,1729688231.5565305,21351,1729688231,0.079000004,0.01,0,-0.01,1729688231.5550654,21339,1729688230,6.494819135173575,8.341535461577486,-0.051,-0.004487255,0.02458176,-0.170815896,-0.04,0.02,-0.03,1729688231.5552392,21342,1729688230,-0.004490951,0.024599522,-0.170830095,-0.984983134,0.000133201,3.547500818967812e-05,-0.000601113,1729688231.556008,21348,1729688231,1000,1000,1000,1000,0,1729688231.6271894,21352,1729688231,0.066255324,0.053679504,70,0,550.7899780273438,0.038836565,1729688230,504.0360543798424,72.9913143,33.6370884,12,1729688240.4467344,2303,1729688240,33.6370899,72.9913027,551.9299926757812,1.5707963705062866,1729688231.5562682,3056,1,0,0,1,5,1729688237.294335,0.8,-54,1729688236.960106,7.3,1729688239.699074,7.6
1,1729688240.4332595,66,0,33.63709006837704,72.99130255605894,1.25,,,,,,,,,,,,,,,,,,,,,,,,,,,,,,,,,,,,,,,,,,,,,,,,,,,,,,,,,,,,,,,,,,,,,,,,
2,1729688240.4334304,369,0,33.63709006837704,72.99130255605894,1.25,,,,,,,,,,,,,,,,,,,,,,,,,,,,,,,,,,,,,,,,,,,,,,,,,,,,,,,,,,,,,,,,,,,,,,,,
3,1729688240.604279,2111,0,33.637089973046166,72.99130268856713,1.25,,,,,,,,,,,,,,,,,,,,,,,,,,,,,,,,,,,,,,,,,,,,,,,,,,,,,,,,,,,,,,,,,,,,,,,,
4,1729688240.628479,2112,0,33.637089973046166,72.99130268856713,1.25,,,,,,,,,,,,,,,,,,,,,,,,,,,,,,,,,,,,,,,,,,,,,,,,,,,,,,,,,,,,,,,,,,,,,,,,
5,1729688240.628565,2117,0,33.637089973046166,72.99130268856713,1.25,,,,,,,,,,,,,,,,,,,,,,,,,,,,,,,,,,,,,,,,,,,,,,,,,,,,,,,,,,,,,,,,,,,,,,,,
6,1729688240.6286392,2131,0,33.637089973046166,72.99130268856713,1.25,,,,,,,,,,,,,,,,,,,,,,,,,,,,,,,,,,,,,,,,,,,,,,,,,,,,,,,,,,,,,,,,,,,,,,,,
7,1729688241,2247,0,33.637089973046166,72.99130268856713,1.25,,,,,,,,,,,,,,,,,,,,,,,,,,,,,,,,,,,,,,,,,,,,,,,,,,,,,,,,,,,,,,,,,,,,,,,,
8,1729688240.6446989,2321,0,33.637089973046166,72.99130268856713,1.25,,,,,,,,,,,,,,,,,,,,,,,,,,,,,,,,,,,,,,,,,,,,,,,,,,,,,,,,,,,,,,,,,,,,,,,,
9,1729688240.6447122,2322,0,33.637089973046166,72.99130268856713,1.25,,,,,,,,,,,,,,,,,,,,,,,,,,,,,,,,,,,,,,,,,,,,,,,,,,,,,,,,,,,,,,,,,,,,,,,,
10,1729688241,2357,0,33.637089973046166,72.99130268856713,1.25,,,,,,,,,,,,,,,,,,,,,,,,,,,,,,,,,,,,,,,,,,,,,,,,,,,,,,,,,,,,,,,,,,,,,,,,
11,1729688240.7742498,2416,0,33.637089973046166,72.99130268856713,1.25,,,,,,,,,,,,,,,,,,,,,,,,,,,,,,,,,,,,,,,,,,,,,,,,,,,,,,,,,,,,,,,,,,,,,,,,
12,1729688240.7743258,2631,0,33.637089973046166,72.99130268856713,1.25,,,,,,,,,,,,,,,,,,,,,,,,,,,,,,,,,,,,,,,,,,,,,,,,,,,,,,,,,,,,,,,,,,,,,,,,
13,1729688240.774342,2770,0,33.637089973046166,72.99130268856713,1.25,,,,,,,,,,,,,,,,,,,,,,,,,,,,,,,,,,,,,,,,,,,,,,,,,,,,,,,,,,,,,,,,,,,,,,,,
14,1729688240.7744105,2771,0,33.637089973046166,72.99130268856713,1.25,,,,,,,,,,,,,,,,,,,,,,,,,,,,,,,,,,,,,,,,,,,,,,,,,,,,,,,,,,,,,,,,,,,,,,,,
15,1729688240.7744231,2855,0,33.637089973046166,72.99130268856713,1.25,,,,,,,,,,,,,,,,,,,,,,,,,,,,,,,,,,,,,,,,,,,,,,,,,,,,,,,,,,,,,,,,,,,,,,,,
16,1729688240.7762926,3474,0,33.63709008027049,72.99130269,1.2640000581741333,,,,,,,,,,,,,,,,,,,,,,,,,,,,,,,,,,,,,,,,,,,,,,,,,,,,,,,,,,,,,,,,,,,,,,,,
17,1729688240.948078,4117,0,33.63709063688744,72.99129849,1.2640000581741333,,,,,,,,,,,,,,,,,,,,,,,,,,,,,,,,,,,,,,,,,,,,,,,,,,,,,,,,,,,,,,,,,,,,,,,,
18,1729688240.9505198,4438,0,33.637090605660454,72.99129933067786,1.284000039100647,,,,,,,,,,,,,,,,,,,,,,,,,,,,,,,,,,,,,,,,,,,,,,,,,,,,,,,,,,,,,,,,,,,,,,,,
19,1729688240.9540355,4837,0,33.637090605660454,72.99129933067786,1.2999999523162842,1729688231.5567632,21352,1729688231,0.085000001,0.01,0,-0.01,1729688231.555154,21340,1729688230,6.494819135173575,8.341535461577486,-0.053,-0.004514776,0.024604038,-0.170805155,-0.04,0.02,-0.03,1729688231.5553725,21343,1729688230,-0.00444232,0.024574184,-0.170873281,-0.984976496,-0.001726906,-0.001704078,-0.000212139,1729688231.5561593,21349,1729688231,1000,1000,1000,1000,0,1729688231.7263052,21353,1729688231,0.066081733,0.054453347,70,0,550.7799682617188,0.037438311,1729688230,504.0260543798424,72.9913143,33.6370884,12,,,,,,,,,,,,,,,,,,,,,
20,1729688240.9555886,4861,0,33.637090605660454,72.99129933067786,1.2999999523162842,,,,,,,,,,,,,,,,,,,,,,,,,,,,,,,,,,,,,,,,,,,,,,,,,,,,,,,,,,,,,,,,,,,,,,,,
21,1729688240.9701238,4993,0,33.637090605660454,72.99129933067786,1.2999999523162842,,,,,,,,,,,,,,,,,,,,,,,,,,,,,,,,,,,,,,,,,,,,,,,,,,,,,,,,,,,,,,,,,,,,,,,,
22,1729688241.1268182,5215,0,33.637090605660454,72.99129933067786,1.2999999523162842,,,,,,,,,,,,,,,,,,,,,,,,,,,,,,,,,,,,,,,,,,,,,,,,,,,,,,,,,,,,,,,,,,,,,,,,
23,1729688241.131244,5993,0,33.637090111299734,72.99130409784505,1.312999963760376,,,,,,,,,,,,,,,,,,,,,,,,,,,,,,,,,,,,,,,,,,,,,,,,,,,,,,,,,,,,,,,,,,,,,,,,
24,1729688241.1313326,6024,0,33.63709011153295,72.99130750779169,1.3259999752044678,,,,,,,,,,,,,,,,,,,,,,,,,,,,,,,,,,,,,,,,,,,,,,,,,,,,,,,,,,,,,,,,,,,,,,,,
25,1729688241.131415,6197,0,33.63709011153295,72.99130750779169,1.3259999752044678,,,,,,,,,,,,,,,,,,,,,,,,,,,,,,,,,,,,,,,,,,,,,,,,,,,,,,,,,,,,,,,,,,,,,,,,
26,1729688241.132957,6264,0,33.63709011153295,72.99130750779169,1.3259999752044678,,,,,,,,,,,,,,,,,,,,,,,,,,,,,,,,,,,,,,,,,,,,,,,,,,,,,,,,,,,,,,,,,,,,,,,,
27,1729688241.1370714,6294,0,33.63709011153295,72.99130750779169,1.3259999752044678,,,,,,,,,,,,,,,,,,,,,,,,,,,,,,,,,,,,,,,,,,,,,,,,,,,,,,,,,,,,,,,,,,,,,,,,
28,1729688241.2971306,6812,0,33.63709011942835,72.99130778814074,1.3359999656677246,,,,,,,,,,,,,,,,,,,,,,,,,,,,,,,,,,,,,,,,,,,,,,,,,,,,1729688240.540037,2304,1729688240,33.6370899,72.9913027,551.9299926757812,1.5707963705062866,,,,,,,,,,,,,,
29,1729688241.3027685,6814,0,33.63709011942835,72.99130778814074,1.3359999656677246,,,,,,,,,,,,,,,,,,,,,,,,,,,,,,,,,,,,,,,,,,,,,,,,,,,,,,,,,,,,,,,,,,,,,,,,
30,1729688241.3068929,7609,0,33.637090219428345,72.99130778814074,1.3359999656677246,,,,,,,,,,,,,,,,,,,,,,,,,,,,,,,,,,,,,,,,,,,,,,,,,,,,,,,,,,,,,,,,,,,,,,,,
31,1729688241.4732134,8370,0,33.63709017843261,72.99130597583888,1.343999981880188,,,,,,,,,,,,,,,,,,,,,,,,,,,,,,,,,,,,,,,,,,,,,,,,,,,,,,,,,,,,,,,,,,,,,,,,
32,1729688241.479143,8983,0,33.63709028273742,72.99130325361949,1.343999981880188,,,,,,,,,,,,,,,,,,,,,,,,,,,,,,,,,,,,,,,,,,,,,,,,,,,,,,,,,,,,,,,,,,,,,,,,
33,1729688241.4791849,8992,0,33.63709028273742,72.99130325361949,1.343999981880188,,,,,,,,,,,,,,,,,,,,,,,,,,,,,,,,,,,,,,,,,,,,,,,,,,,,,,,,,,,,,,,,,,,,,,,,
34,1729688241.4964793,9154,0,33.63709028273742,72.99130325361949,1.343999981880188,,,,,,,,,,,,,,,,,,,,,,,,,,,,,,,,,,,,,,,,,,,,,,,,,,,,,,,,,,,,,,,,,,,,,,,,
35,1729688241.5011387,9177,0,33.63709069461232,72.99130033489311,1.3450000286102295,,,,,,,,,,,,,,,,,,,,,,,,,,,,,,,,,,,,,,,,,,,,,,,,,,,,,,,,,,,,,,,,,,,,,,,,
36,1729688241.5040717,9204,0,33.63709069461232,72.99130033489311,1.3450000286102295,,,,,,,,,,,,,,,,,,,,,,,,,,,,,,,,,,,,,,,,,,,,,,,,,,,,,,,,,,,,,,,,,,,,,,,,
37,1729688241.6429684,9273,0,33.63709069461232,72.99130033489311,1.3450000286102295,,,,,,,,,,,,,,,,,,,,,,,,,,,,,,,,,,,,,,,,,,,,,,,,,,,,,,,,,,,,,,,,,,,,,,,,
38,1729688241.6471725,9954,0,33.63709069461232,72.99130033489311,1.3450000286102295,1729688231.6359262,21353,1729688231,0.083999999,0.01,0,-0.01,1729688231.555197,21341,1729688230,6.494819135173575,8.341535461577486,-0.052,-0.004518418,0.024617853,-0.170803838,-0.04,0.02,-0.03,1729688231.5554724,21344,1729688230,-0.004399206,0.024525729,-0.1709287,-0.984968281,-0.001424288,-1.20E-05,3.9832666516304016e-05,1729688231.5563152,21350,1729688231,1000,1000,1000,1000,0,1729688231.827623,21354,1729688231,0.066294171,0.056400042,70,0,550.7699584960938,0.034841813,1729688230,504.0260543798424,72.9913143,33.6370884,12,,,,,,,,,,,,,,,,,,,,,
39,1729688241.6472783,9999,0,33.637091177925655,72.99129818,1.350999951,,,,,,,,,,,,,,,,,,,,,,,,,,,,,,,,,,,,,,,,,,,,,,,,,,,,,,,,,,,,,,,,,,,,,,,,
40,1729688241.647303,10063,0,33.637091177925655,72.99129818,1.350999951,,,,,,,,,,,,,,,,,,,,,,,,,,,,,,,,,,,,,,,,,,,,,,,,,,,,,,,,,,,,,,,,,,,,,,,,
41,1729688241.647318,10205,0,33.637091177925655,72.99129818,1.350999951,,,,,,,,,,,,,,,,,,,,,,,,,,,,,,,,,,,,,,,,,,,,,,,,,,,,,,,,,,,,,,,,,,,,,,,,
42,1729688241.6473286,10268,0,33.637091177925655,72.99129818,1.350999951,,,,,,,,,,,,,,,,,,,,,,,,,,,,,,,,,,,,,,,,,,,,,,,,,,,,,,,,,,,,,,,,,,,,,,,,
43,1729688241.6474032,10269,0,33.637091177925655,72.99129818,1.350999951,,,,,,,,,,,,,,,,,,,,,,,,,,,,,,,,,,,,,,,,,,,,,,,,,,,,,,,,,,,,,,,,,,,,,,,,
44,1729688241.8166406,11395,0,33.63709153022305,72.99129685,1.3569999933242798,,,,,,,,,,,,,,,,,,,,,,,,,,,,,,,,,,,,,,,,,,,,,,,,,,,,,,,,,,,,,,,,,,,,,,,,
45,1729688241.8190866,11450,0,33.63709153022305,72.99129685,1.3569999933242798,,,,,,,,,,,,,,,,,,,,,,,,,,,,,,,,,,,,,,,,,,,,,,,,,,,,,,,,,,,,,,,,,,,,,,,,
46,1729688241.8196683,11609,0,33.63709163022305,72.99129655,1.368999958,,,,,,,,,,,,,,,,,,,,,,,,,,,,,,,,,,,,,,,,,,,,,,,,,,,,,,,,,,,,,,,,,,,,,,,,
47,1729688241.8265476,11666,0,33.63709163412859,72.99129653,1.368999958,,,,,,,,,,,,,,,,,,,,,,,,,,,,,,,,,,,,,,,,,,,,,,,,,,,,,,,,,,,,,,,,,,,,,,,,
48,1729688241.8292692,11680,0,33.63709163412859,72.99129653,1.368999958,,,,,,,,,,,,,,,,,,,,,,,,,,,,,,,,,,,,,,,,,,,,,,,,,,,,,,,,,,,,,,,,,,,,,,,,
49,1729688241.993935,12040,0,33.63709163412859,72.99129653,1.368999958,,,,,,,,,,,,,,,,,,,,,,,,,,,,,,,,,,,,,,,,,,,,,,,,,,,,,,,,,,,,,,,,,,,,,,,,
50,1729688241.9963796,12191,0,33.63709163412859,72.99129653,1.368999958,,,,,,,,,,,,,,,,,,,,,,,,,,,,,,,,,,,,,,,,,,,,,,,,,,,,,,,,,,,,,,,,,,,,,,,,
51,1729688241.996419,13032,0,33.63709150774941,72.99129723491048,1.3919999599456787,,,,,,,,,,,,,,,,,,,,,,,,,,,,,,,,,,,,,,,,,,,,,,,,,,,,,,,,,,,,,,,,,,,,,,,,
52,1729688242.0121677,13123,0,33.63709139121298,72.99129793901699,1.4079999923706057,,,,,,,,,,,,,,,,,,,,,,,,,,,,,,,,,,,,,,,,,,,,,,,,,,,,,,,,,,,,,,,,,,,,,,,,
53,1729688242.027733,13239,0,33.63709139121298,72.99129793901699,1.4079999923706057,,,,,,,,,,,,,,,,,,,,,,,,,,,,,,,,,,,,,,,,,,,,,,,,,,,,,,,,,,,,,,,,,,,,,,,,
54,1729688242.029956,13240,0,33.63709139121298,72.99129793901699,1.4079999923706057,,,,,,,,,,,,,,,,,,,,,,,,,,,,,,,,,,,,,,,,,,,,,,,,,,,,,,,,,,,,,,,,,,,,,,,,
55,1729688242.103448,13821,0,33.63709149121298,72.99129753901698,1.4290000200271606,,,,,,,,,,,,,,,,,,,,,,,,,,,,,,,,,,,,,,,,,,,,,,,,,,,,,,,,,,,,,,,,,,,,,,,,
56,1729688242.127617,14021,0,33.63709129626032,72.99129872378059,1.4290000200271606,,,,,,,,,,,,,,,,,,,,,,,,,,,,,,,,,,,,,,,,,,,,,,,,,,,,1729688240.6480944,2305,1729688240,33.6370899,72.9913026,551.9299926757812,1.5707963705062866,,,,,,,,,,,,,,
57,1729688242.1986616,14589,0,33.63709141115748,72.99129903,1.4529999494552612,1729688231.7375505,21354,1729688231,0.082000002,0.01,0,-0.01,1729688231.5553138,21342,1729688230,6.494819135173575,8.341535461577486,-0.055,-0.004490951,0.024599522,-0.170830095,-0.04,0.02,-0.03,1729688231.555548,21345,1729688230,-0.004345638,0.024483598,-0.170985643,-0.984959684,-0.000371544,-0.000568953,0.000101941,1729688231.5565643,21351,1729688231,1000,1000,1000,1000,0,1729688231.9272425,21355,1729688231,0.06694258,0.058709051,70,0,550.7600098,0.032164499,1729688230,504.0260543798424,72.9913143,33.6370884,12,,,,,,,,,,,,,,,,,,,,,
58,1729688242.2307837,14812,0,33.63709141115748,72.99129903,1.4529999494552612,,,,,,,,,,,,,,,,,,,,,,,,,,,,,,,,,,,,,,,,,,,,,,,,,,,,,,,,,,,,,,,,,,,,,,,,
59,1729688242.2961102,15370,0,33.63709141115748,72.99129903,1.4529999494552612,,,,,,,,,,,,,,,,,,,,,,,,,,,,,,,,,,,,,,,,,,,,,,,,,,,,,,,,,,,,,,,,,,,,,,,,
60,1729688242.3006976,15389,0,33.63709141115748,72.99129863038272,1.4880000352859497,,,,,,,,,,,,,,,,,,,,,,,,,,,,,,,,,,,,,,,,,,,,,,,,,,,,,,,,,,,,,,,,,,,,,,,,
61,1729688242.307669,15434,0,33.637091424548615,72.99129853007753,1.4880000352859497,,,,,,,,,,,,,,,,,,,,,,,,,,,,,,,,,,,,,,,,,,,,,,,,,,,,,,,,,,,,,,,,,,,,,,,,
62,1729688242.3266366,15580,0,33.637091424548615,72.99129853007753,1.4880000352859497,,,,,,,,,,,,,,,,,,,,,,,,,,,,,,,,,,,,,,,,,,,,,,,,,,,,,,,,,,,,,,,,,,,,,,,,
63,1729688242.330404,15606,0,33.637091424548615,72.99129853007753,1.4880000352859497,,,,,,,,,,,,,,,,,,,,,,,,,,,,,,,,,,,,,,,,,,,,,,,,,,,,,,,,,,,,,,,,,,,,,,,,
64,1729688242.3978424,16152,0,33.637091600394456,72.9912977,1.4880000352859497,,,,,,,,,,,,,,,,,,,,,,,,,,,,,,,,,,,,,,,,,,,,,,,,,,,,,,,,,,,,,,,,,,,,,,,,
65,1729688242.4277835,16373,0,33.637091600394456,72.9912977,1.5169999599456787,,,,,,,,,,,,,,,,,,,,,,,,,,,,,,,,,,,,,,,,,,,,,,,,,,,,,,,,,,,,,,,,,,,,,,,,
66,1729688242.497713,16929,0,33.637091600394456,72.9912974,1.5509999990463257,,,,,,,,,,,,,,,,,,,,,,,,,,,,,,,,,,,,,,,,,,,,,,,,,,,,,,,,,,,,,,,,,,,,,,,,
67,1729688242.562952,17377,0,33.63709171869656,72.99129665,1.5509999990463257,,,,,,,,,,,,,,,,,,,,,,,,,,,,,,,,,,,,,,,,,,,,,,,,,,,,,,,,,,,,,,,,,,,,,,,,
68,1729688242.5888748,17603,0,33.63709171869656,72.99129665,1.5509999990463257,,,,,,,,,,,,,,,,,,,,,,,,,,,,,,,,,,,,,,,,,,,,,,,,,,,,,,,,,,,,,,,,,,,,,,,,
69,1729688242.5908046,17604,0,33.63709171869656,72.99129665,1.5509999990463257,,,,,,,,,,,,,,,,,,,,,,,,,,,,,,,,,,,,,,,,,,,,,,,,,,,,,,,,,,,,,,,,,,,,,,,,
70,1729688242.5967548,17656,0,33.63709171869656,72.99129665,1.5509999990463257,,,,,,,,,,,,,,,,,,,,,,,,,,,,,,,,,,,,,,,,,,,,,,,,,,,,,,,,,,,,,,,,,,,,,,,,
71,1729688242.6043503,17670,0,33.63709193482305,72.99129570205878,1.5809999704360962,,,,,,,,,,,,,,,,,,,,,,,,,,,,,,,,,,,,,,,,,,,,,,,,,,,,,,,,,,,,,,,,,,,,,,,,
72,1729688242.615916,17761,0,33.63709193482305,72.99129570205878,1.5809999704360962,,,,,,,,,,,,,,,,,,,,,,,,,,,,,,,,,,,,,,,,,,,,,,,,,,,,,,,,,,,,,,,,,,,,,,,,
73,1729688242.6942768,18404,0,33.63709193482305,72.99129570205878,1.5809999704360962,,,,,,,,,,,,,,,,,,,,,,,,,,,,,,,,,,,,,,,,,,,,,,,,,,,,,,,,,,,,,,,,,,,,,,,,
74,1729688242.7005484,18436,0,33.63709193482305,72.99129540205877,1.5809999704360962,,,,,,,,,,,,,,,,,,,,,,,,,,,,,,,,,,,,,,,,,,,,,,,,,,,,,,,,,,,,,,,,,,,,,,,,
75,1729688242.7052746,18437,0,33.63709193482305,72.99129540205877,1.5809999704360962,,,,,,,,,,,,,,,,,,,,,,,,,,,,,,,,,,,,,,,,,,,,,,,,,,,,,,,,,,,,,,,,,,,,,,,,
76,1729688242.7053056,18439,0,33.63709197141183,72.99129520948034,1.5809999704360962,1729688231.8357563,21355,1729688231,0.088,0.01,0,-0.01,1729688231.555375,21343,1729688230,6.494819127411542,8.352627924680828,-0.057,-0.00444232,0.024574184,-0.170873281,-0.04,0.02,-0.03,1729688231.5556848,21346,1729688231,-0.004325673,0.024459128,-0.170990718,-0.984959499,-0.00034117,0.000208978,-0.000579145,1729688231.627149,21352,1729688231,1000,1000,1000,1000,0,1729688232.027542,21356,1729688232,0.066963531,0.059345134,70,0,550.75,0.031020477,1729688230,504.0260543798424,72.9913143,33.6370884,12,,,,,,,,,,,,,,,,,,,,,
77,1729688242.7330968,18684,0,33.63709197141183,72.99129520948034,1.5809999704360962,,,,,,,,,,,,,,,,,,,,,,,,,,,,,,,,,,,,,,,,,,,,,,,,,,,,,,,,,,,,,,,,,,,,,,,,
78,1729688242.7349162,18693,0,33.63709197141183,72.99129520948034,1.6089999675750732,,,,,,,,,,,,,,,,,,,,,,,,,,,,,,,,,,,,,,,,,,,,,,,,,,,,,,,,,,,,,,,,,,,,,,,,
79,1729688242.7956505,19203,0,33.63709197141183,72.99129520948034,1.6089999675750732,,,,,,,,,,,,,,,,,,,,,,,,,,,,,,,,,,,,,,,,,,,,,,,,,,,,,,,,,,,,,,,,,,,,,,,,
80,1729688242.8022668,19230,0,33.63709197141183,72.99129500948035,1.6089999675750732,,,,,,,,,,,,,,,,,,,,,,,,,,,,,,,,,,,,,,,,,,,,,,,,,,,,,,,,,,,,,,,,,,,,,,,,
81,1729688242.804649,19231,0,33.63709197141183,72.99129500948035,1.6089999675750732,,,,,,,,,,,,,,,,,,,,,,,,,,,,,,,,,,,,,,,,,,,,,,,,,,,,,,,,,,,,,,,,,,,,,,,,
82,1729688242.829806,19455,0,33.63709183568871,72.99129575371772,1.6349999904632568,,,,,,,,,,,,,,,,,,,,,,,,,,,,,,,,,,,,,,,,,,,,,,,,,,,,,,,,,,,,,,,,,,,,,,,,
83,1729688242.8355825,19456,0,33.63709183568871,72.99129575371772,1.6349999904632568,,,,,,,,,,,,,,,,,,,,,,,,,,,,,,,,,,,,,,,,,,,,,,,,,,,,,,,,,,,,,,,,,,,,,,,,
84,1729688242.8971298,19998,0,33.63709183568871,72.99129575371772,1.6349999904632568,,,,,,,,,,,,,,,,,,,,,,,,,,,,,,,,,,,,,,,,,,,,,,,,,,,,1729688240.7382147,2306,1729688240,33.6370899,72.9913026,551.9299926757812,1.5707963705062866,,,,,,,,,,,,,,
85,1729688242.8991709,20015,0,33.63709160237583,72.9912971,1.6660000085830688,,,,,,,,,,,,,,,,,,,,,,,,,,,,,,,,,,,,,,,,,,,,,,,,,,,,,,,,,,,,,,,,,,,,,,,,
86,1729688242.928383,20205,0,33.63709160237583,72.9912971,1.6660000085830688,,,,,,,,,,,,,,,,,,,,,,,,,,,,,,,,,,,,,,,,,,,,,,,,,,,,,,,,,,,,,,,,,,,,,,,,
87,1729688242.9952648,20775,0,33.63709160237583,72.9912971,1.6660000085830688,,,,,,,,,,,,,,,,,,,,,,,,,,,,,,,,,,,,,,,,,,,,,,,,,,,,,,,,,,,,,,,,,,,,,,,,
88,1729688243.0005505,20793,0,33.63709160237583,72.99129689728069,1.6660000085830688,,,,,,,,,,,,,,,,,,,,,,,,,,,,,,,,,,,,,,,,,,,,,,,,,,,,,,,,,,,,,,,,,,,,,,,,
89,1729688243.1273575,21568,0,33.63709143267046,72.99129844139593,1.6970000267028809,,,,,,,,,,,,,,,,,,,,,,,,,,,,,,,,,,,,,,,,,,,,,,,,,,,,,,,,,,,,,,,,,,,,,,,,
90,1729688243.1357963,21572,0,33.63709136837704,72.99129916,1.7269999980926514,,,,,,,,,,,,,,,,,,,,,,,,,,,,,,,,,,,,,,,,,,,,,,,,,,,,,,,,,,,,,,,,,,,,,,,,
91,1729688243.135809,21816,0,33.63709136837704,72.99129916,1.7269999980926514,,,,,,,,,,,,,,,,,,,,,,,,,,,,,,,,,,,,,,,,,,,,,,,,,,,,,,,,,,,,,,,,,,,,,,,,
92,1729688243.2590168,22358,0,33.63709136837704,72.99129916,1.7269999980926514,,,,,,,,,,,,,,,,,,,,,,,,,,,,,,,,,,,,,,,,,,,,,,,,,,,,,,,,,,,,,,,,,,,,,,,,
93,1729688243.2680624,22869,0,33.637091337734326,72.99129965133407,1.7599999904632568,,,,,,,,,,,,,,,,,,,,,,,,,,,,,,,,,,,,,,,,,,,,,,,,,,,,,,,,,,,,,,,,,,,,,,,,
94,1729688243.299971,23186,0,33.637091337734326,72.99129965133407,1.7599999904632568,,,,,,,,,,,,,,,,,,,,,,,,,,,,,,,,,,,,,,,,,,,,,,,,,,,,,,,,,,,,,,,,,,,,,,,,
95,1729688243.3917909,23205,0,33.637091321002096,72.99129997804982,1.7599999904632568,1729688231.9410515,21356,1729688231,0.086999997,0.01,0,-0.01,1729688231.555473,21344,1729688230,6.494819127411542,8.352627924680828,-0.058,-0.004399206,0.024525729,-0.1709287,-0.03,0.03,-0.03,1729688231.5557678,21347,1729688231,-0.004331068,0.024438463,-0.170982918,-0.984961342,-0.000329256,0.00017171,-0.000509157,1729688231.726382,21353,1729688231,1000,1000,1000,1000,0,1729688232.127292,21357,1729688232,0.066508017,0.05983511,70,0,550.7399902,0.029035777,1729688230,504.0260549927889,72.9913143,33.6370885,12,,,,,,,,,,,,,,,,,,,,,
96,1729688243.3918197,23206,0,33.637091321002096,72.99129997804982,1.7599999904632568,,,,,,,,,,,,,,,,,,,,,,,,,,,,,,,,,,,,,,,,,,,,,,,,,,,,,,,,,,,,,,,,,,,,,,,,
97,1729688243.3974714,23914,0,33.637091321002096,72.99129997804982,1.7979999780654907,,,,,,,,,,,,,,,,,,,,,,,,,,,,,,,,,,,,,,,,,,,,,,,,,,,,,,,,,,,,,,,,,,,,,,,,
98,1729688243.3976018,23956,0,33.637091321002096,72.99129997804982,1.7979999780654907,,,,,,,,,,,,,,,,,,,,,,,,,,,,,,,,,,,,,,,,,,,,,,,,,,,,,,,,,,,,,,,,,,,,,,,,
99,1729688243.3976915,23957,0,33.63709132562111,72.99129988226747,1.8329999446868896,,,,,,,,,,,,,,,,,,,,,,,,,,,,,,,,,,,,,,,,,,,,,,,,,,,,,,,,,,,,,,,,,,,,,,,,
100,1729688243.4262366,24150,0,33.63709132562111,72.99129988226747,1.8329999446868896,,,,,,,,,,,,,,,,,,,,,,,,,,,,,,,,,,,,,,,,,,,,,,,,,,,,,,,,,,,,,,,,,,,,,,,,
101,1729688243.5166333,24723,0,33.63709132562111,72.99129988226747,1.8329999446868896,,,,,,,,,,,,,,,,,,,,,,,,,,,,,,,,,,,,,,,,,,,,,,,,,,,,,,,,,,,,,,,,,,,,,,,,
102,1729688243.5321343,24743,0,33.63709135,72.99129968805669,1.868000030517578,,,,,,,,,,,,,,,,,,,,,,,,,,,,,,,,,,,,,,,,,,,,,,,,,,,,,,,,,,,,,,,,,,,,,,,,
103,1729688243.532336,24803,0,33.63709135,72.99129968805669,1.868000030517578,,,,,,,,,,,,,,,,,,,,,,,,,,,,,,,,,,,,,,,,,,,,,,,,,,,,,,,,,,,,,,,,,,,,,,,,
104,1729688243.6977746,25511,0,33.63709135,72.99129968805669,1.868000030517578,,,,,,,,,,,,,,,,,,,,,,,,,,,,,,,,,,,,,,,,,,,,,,,,,,,,,,,,,,,,,,,,,,,,,,,,
105,1729688243.7357924,25522,0,33.63709135,72.99129978805666,1.868000030517578,,,,,,,,,,,,,,,,,,,,,,,,,,,,,,,,,,,,,,,,,,,,,,,,,,,,,,,,,,,,,,,,,,,,,,,,
106,1729688243.7358477,25858,0,33.63709134780634,72.99129977679829,1.868000030517578,,,,,,,,,,,,,,,,,,,,,,,,,,,,,,,,,,,,,,,,,,,,,,,,,,,,,,,,,,,,,,,,,,,,,,,,
107,1729688243.7358615,26197,0,33.63709134780634,72.99129977679829,1.899000049,,,,,,,,,,,,,,,,,,,,,,,,,,,,,,,,,,,,,,,,,,,,,,,,,,,,,,,,,,,,,,,,,,,,,,,,
108,1729688243.7359138,26310,0,33.63709134780634,72.99129977679829,1.899000049,,,,,,,,,,,,,,,,,,,,,,,,,,,,,,,,,,,,,,,,,,,,,,,,,,,,,,,,,,,,,,,,,,,,,,,,
109,1729688243.7360742,26329,0,33.63709134780634,72.99129998,1.9259999990463257,,,,,,,,,,,,,,,,,,,,,,,,,,,,,,,,,,,,,,,,,,,,,,,,,,,,,,,,,,,,,,,,,,,,,,,,
110,1729688243.8231792,26554,0,33.637091304063084,72.99130088388398,1.9259999990463257,,,,,,,,,,,,,,,,,,,,,,,,,,,,,,,,,,,,,,,,,,,,,,,,,,,,,,,,,,,,,,,,,,,,,,,,
111,1729688243.837946,26651,0,33.637091304063084,72.99130088388398,1.9259999990463257,,,,,,,,,,,,,,,,,,,,,,,,,,,,,,,,,,,,,,,,,,,,,,,,,,,,,,,,,,,,,,,,,,,,,,,,
112,1729688243.8382027,27122,0,33.63709127825425,72.99130244,1.9259999990463257,,,,,,,,,,,,,,,,,,,,,,,,,,,,,,,,,,,,,,,,,,,,,,,,,,,,1729688240.8376527,2307,1729688240,33.63709,72.9913026,551.9400024414062,1.5707963705062866,,,,,,,,,,,,,,
113,1729688243.8404872,27360,0,33.63709127825425,72.99130244,1.955000042915344,,,,,,,,,,,,,,,,,,,,,,,,,,,,,,,,,,,,,,,,,,,,,,,,,,,,,,,,,,,,,,,,,,,,,,,,
114,1729688243.840597,27384,0,33.63709127825425,72.99130244,1.955000042915344,1729688232.0370524,21357,1729688232,0.082999997,0.01,0,-0.01,1729688231.5555716,21345,1729688230,6.494819120094803,8.363720390185778,-0.055,-0.004345638,0.024483598,-0.170985643,-0.03,0.03,-0.03,1729688231.5559416,21348,1729688231,-0.004329289,0.024444943,-0.171002478,-0.984957793,-0.000933569,-0.000321882,-0.000780332,1729688231.827607,21354,1729688231,1000,1000,1000,1000,0,1729688232.2295024,21358,1729688232,0.065161519,0.05852991,70,0,550.7299805,0.028640416,1729688230,504.0260549927889,72.9913143,33.6370885,12,,,,,,,,,,,,,,,,,,,,,
115,1729688243.9632156,27888,0,33.63709127825425,72.99130244,1.955000042915344,,,,,,,,,,,,,,,,,,,,,,,,,,,,,,,,,,,,,,,,,,,,,,,,,,,,,,,,,,,,,,,,,,,,,,,,
116,1729688243.9751086,27904,0,33.63709129880581,72.99130376386711,1.9889999628067017,,,,,,,,,,,,,,,,,,,,,,,,,,,,,,,,,,,,,,,,,,,,,,,,,,,,,,,,,,,,,,,,,,,,,,,,
117,1729688243.9752483,27905,0,33.63709129880581,72.99130376386711,1.9889999628067017,,,,,,,,,,,,,,,,,,,,,,,,,,,,,,,,,,,,,,,,,,,,,,,,,,,,,,,,,,,,,,,,,,,,,,,,
118,1729688244.099073,28709,0,33.637091198805805,72.99130396386713,1.9889999628067017,,,,,,,,,,,,,,,,,,,,,,,,,,,,,,,,,,,,,,,,,,,,,,,,,,,,,,,,,,,,,,,,,,,,,,,,
119,1729688244.1043053,28710,0,33.637091198805805,72.99130396386713,1.9889999628067017,,,,,,,,,,,,,,,,,,,,,,,,,,,,,,,,,,,,,,,,,,,,,,,,,,,,,,,,,,,,,,,,,,,,,,,,
120,1729688244.1043975,29489,0,33.63709124447139,72.99130496690702,2.026000022888184,,,,,,,,,,,,,,,,,,,,,,,,,,,,,,,,,,,,,,,,,,,,,,,,,,,,,,,,,,,,,,,,,,,,,,,,
121,1729688244.104474,29490,0,33.63709124447139,72.99130496690702,2.026000022888184,,,,,,,,,,,,,,,,,,,,,,,,,,,,,,,,,,,,,,,,,,,,,,,,,,,,,,,,,,,,,,,,,,,,,,,,
122,1729688244.1047163,29493,0,33.63709114,72.99130516690701,2.026000022888184,,,,,,,,,,,,,,,,,,,,,,,,,,,,,,,,,,,,,,,,,,,,,,,,,,,,,,,,,,,,,,,,,,,,,,,,
123,1729688244.1309729,29732,0,33.63709123875998,72.99130642593235,2.026000022888184,,,,,,,,,,,,,,,,,,,,,,,,,,,,,,,,,,,,,,,,,,,,,,,,,,,,,,,,,,,,,,,,,,,,,,,,
124,1729688244.269062,29826,0,33.63709123875998,72.99130642593235,2.065999984741211,,,,,,,,,,,,,,,,,,,,,,,,,,,,,,,,,,,,,,,,,,,,,,,,,,,,,,,,,,,,,,,,,,,,,,,,
125,1729688244.2724807,30126,0,33.63709123875998,72.99130642593235,2.065999984741211,,,,,,,,,,,,,,,,,,,,,,,,,,,,,,,,,,,,,,,,,,,,,,,,,,,,,,,,,,,,,,,,,,,,,,,,
126,1729688244.2725697,30299,0,33.63709123875998,72.99130662593237,2.065999984741211,,,,,,,,,,,,,,,,,,,,,,,,,,,,,,,,,,,,,,,,,,,,,,,,,,,,,,,,,,,,,,,,,,,,,,,,
127,1729688244.272688,30881,0,33.63709136430277,72.99130780141104,2.1029999256134038,,,,,,,,,,,,,,,,,,,,,,,,,,,,,,,,,,,,,,,,,,,,,,,,,,,,,,,,,,,,,,,,,,,,,,,,
128,1729688244.2749658,30909,0,33.63709136430277,72.99130780141104,2.1029999256134038,,,,,,,,,,,,,,,,,,,,,,,,,,,,,,,,,,,,,,,,,,,,,,,,,,,,,,,,,,,,,,,,,,,,,,,,
129,1729688244.2761862,30915,0,33.63709136430277,72.99130780141104,2.1029999256134038,,,,,,,,,,,,,,,,,,,,,,,,,,,,,,,,,,,,,,,,,,,,,,,,,,,,,,,,,,,,,,,,,,,,,,,,
130,1729688244.2945616,31064,0,33.63709136430277,72.99130780141104,2.1029999256134038,,,,,,,,,,,,,,,,,,,,,,,,,,,,,,,,,,,,,,,,,,,,,,,,,,,,,,,,,,,,,,,,,,,,,,,,
131,1729688244.2967193,31065,0,33.63709136430277,72.99130780141104,2.1029999256134038,,,,,,,,,,,,,,,,,,,,,,,,,,,,,,,,,,,,,,,,,,,,,,,,,,,,,,,,,,,,,,,,,,,,,,,,
132,1729688244.300377,31087,0,33.63709133973528,72.99130858131278,2.138999938964844,,,,,,,,,,,,,,,,,,,,,,,,,,,,,,,,,,,,,,,,,,,,,,,,,,,,,,,,,,,,,,,,,,,,,,,,
133,1729688244.4525995,31880,0,33.63709133973528,72.99130858131278,2.138999938964844,1729688232.1374922,21358,1729688232,0.086999997,0.01,0,-0.01,1729688231.555675,21346,1729688231,6.504097425,8.374812861126536,-0.052,-0.004325673,0.024459128,-0.170990718,-0.03,0.03,-0.03,1729688231.5561285,21349,1729688231,-0.004333594,0.024454788,-0.171026846,-0.984953299,-0.001424909,-0.001153376,0.000170718,1729688231.9272258,21355,1729688231,1000,1000,1000,1000,0,1729688232.3280134,21359,1729688232,0.06326887,0.05699857,70,0,550.7299805,0.027461104,1729688230,504.0260556057355,72.9913143,33.6370886,12,,,,,,,,,,,,,,,,,,,,,
134,1729688244.4565248,31886,0,33.63709133973528,72.99130868,2.138999938964844,,,,,,,,,,,,,,,,,,,,,,,,,,,,,,,,,,,,,,,,,,,,,,,,,,,,,,,,,,,,,,,,,,,,,,,,
135,1729688244.4566317,31892,0,33.63709137187947,72.99130891,2.1760001182556152,,,,,,,,,,,,,,,,,,,,,,,,,,,,,,,,,,,,,,,,,,,,,,,,,,,,,,,,,,,,,,,,,,,,,,,,
136,1729688244.4567614,32119,0,33.63709137187947,72.99130891,2.1760001182556152,,,,,,,,,,,,,,,,,,,,,,,,,,,,,,,,,,,,,,,,,,,,,,,,,,,,,,,,,,,,,,,,,,,,,,,,
137,1729688244.4568944,32247,0,33.63709137187947,72.99130891,2.1760001182556152,,,,,,,,,,,,,,,,,,,,,,,,,,,,,,,,,,,,,,,,,,,,,,,,,,,,,,,,,,,,,,,,,,,,,,,,
138,1729688244.4582124,32363,0,33.63709137187947,72.99130891,2.1760001182556152,,,,,,,,,,,,,,,,,,,,,,,,,,,,,,,,,,,,,,,,,,,,,,,,,,,,,,,,,,,,,,,,,,,,,,,,
139,1729688244.6138468,32661,0,33.63709137187947,72.99130891,2.1760001182556152,,,,,,,,,,,,,,,,,,,,,,,,,,,,,,,,,,,,,,,,,,,,,,,,,,,,,,,,,,,,,,,,,,,,,,,,
140,1729688244.622064,32662,0,33.63709137187947,72.99130891,2.1760001182556152,,,,,,,,,,,,,,,,,,,,,,,,,,,,,,,,,,,,,,,,,,,,,,,,,,,,1729688241,2308,1729688240,33.63709,72.9913026,551.9400024414062,1.5707963705062866,,,,,,,,,,,,,,
141,1729688244.6222005,32705,0,33.63709126629523,72.99130907052792,2.213000059127808,,,,,,,,,,,,,,,,,,,,,,,,,,,,,,,,,,,,,,,,,,,,,,,,,,,,,,,,,,,,,,,,,,,,,,,,
142,1729688244.6222954,33471,0,33.63709126629523,72.99130907052792,2.213000059127808,,,,,,,,,,,,,,,,,,,,,,,,,,,,,,,,,,,,,,,,,,,,,,,,,,,,,,,,,,,,,,,,,,,,,,,,
143,1729688244.6223917,33472,0,33.63709126629523,72.99130907052792,2.213000059127808,,,,,,,,,,,,,,,,,,,,,,,,,,,,,,,,,,,,,,,,,,,,,,,,,,,,,,,,,,,,,,,,,,,,,,,,
144,1729688244.6224067,33482,0,33.63709113896825,72.99130897574479,2.249000072479248,,,,,,,,,,,,,,,,,,,,,,,,,,,,,,,,,,,,,,,,,,,,,,,,,,,,,,,,,,,,,,,,,,,,,,,,
145,1729688244.622768,33619,0,33.63709113896825,72.99130897574479,2.249000072479248,,,,,,,,,,,,,,,,,,,,,,,,,,,,,,,,,,,,,,,,,,,,,,,,,,,,,,,,,,,,,,,,,,,,,,,,
146,1729688244.787398,34184,0,33.63709113896825,72.99130897574479,2.249000072479248,,,,,,,,,,,,,,,,,,,,,,,,,,,,,,,,,,,,,,,,,,,,,,,,,,,,,,,,,,,,,,,,,,,,,,,,
147,1729688244.790717,34248,0,33.63709113896825,72.99130897574479,2.249000072479248,,,,,,,,,,,,,,,,,,,,,,,,,,,,,,,,,,,,,,,,,,,,,,,,,,,,,,,,,,,,,,,,,,,,,,,,
148,1729688244.7908213,34276,0,33.63709099514692,72.99130884695418,2.249000072479248,,,,,,,,,,,,,,,,,,,,,,,,,,,,,,,,,,,,,,,,,,,,,,,,,,,,,,,,,,,,,,,,,,,,,,,,
149,1729688244.791077,34949,0,33.63709099514692,72.99130884695418,2.282000064849853,,,,,,,,,,,,,,,,,,,,,,,,,,,,,,,,,,,,,,,,,,,,,,,,,,,,,,,,,,,,,,,,,,,,,,,,
150,1729688244.791195,34953,0,33.63709099514692,72.99130884695418,2.282000064849853,,,,,,,,,,,,,,,,,,,,,,,,,,,,,,,,,,,,,,,,,,,,,,,,,,,,,,,,,,,,,,,,,,,,,,,,
151,1729688244.7986202,35002,0,33.63709099514692,72.99130884695418,2.282000064849853,,,,,,,,,,,,,,,,,,,,,,,,,,,,,,,,,,,,,,,,,,,,,,,,,,,,,,,,,,,,,,,,,,,,,,,,
152,1729688244.8006306,35004,0,33.63709086910477,72.99130874049362,2.308000087738037,1729688232.2400615,21359,1729688232,0.086999997,0.01,0,-0.01,1729688231.555812,21347,1729688231,6.504097435312296,8.374812873882105,-0.045,-0.004331068,0.024438463,-0.170982918,-0.03,0.03,-0.03,1729688231.556267,21350,1729688231,-0.004355793,0.024465599,-0.171051038,-0.984948732,-9.98E-05,-0.000905412,-0.000957814,1729688232.027698,21356,1729688232,1000,1000,1000,1000,0,1729688232.4280405,21360,1729688232,0.064385638,0.057712469,70,0,550.7299805,0.028544346,1729688231,504.0260566158587,72.9913144,33.6370887,12,,,,,,,,,,,,,,,,,,,,,
153,1729688244.9656155,35785,0,33.63709084615326,72.99130865,2.3320000171661377,,,,,,,,,,,,,,,,,,,,,,,,,,,,,,,,,,,,,,,,,,,,,,,,,,,,,,,,,,,,,,,,,,,,,,,,
154,1729688245.140286,36559,0,33.63709084615326,72.99130865,2.3320000171661377,,,,,,,,,,,,,,,,,,,,,,,,,,,,,,,,,,,,,,,,,,,,,,,,,,,,,,,,,,,,,,,,,,,,,,,,
155,1729688245.140373,36569,0,33.637090724140336,72.99130856054336,2.3529999256134038,,,,,,,,,,,,,,,,,,,,,,,,,,,,,,,,,,,,,,,,,,,,,,,,,,,,,,,,,,,,,,,,,,,,,,,,
156,1729688245.1404805,37358,0,33.637090724140336,72.99130856054336,2.3529999256134038,,,,,,,,,,,,,,,,,,,,,,,,,,,,,,,,,,,,,,,,,,,,,,,,,,,,,,,,,,,,,,,,,,,,,,,,
157,1729688245.3145063,37955,0,33.63709060671733,72.99130850391165,2.371999979019165,,,,,,,,,,,,,,,,,,,,,,,,,,,,,,,,,,,,,,,,,,,,,,,,,,,,,,,,,,,,,,,,,,,,,,,,
158,1729688245.3270793,38068,0,33.63709060671733,72.99130850391165,2.371999979019165,,,,,,,,,,,,,,,,,,,,,,,,,,,,,,,,,,,,,,,,,,,,,,,,,,,,,,,,,,,,,,,,,,,,,,,,
159,1729688245.327186,38797,0,33.637090485835095,72.99130830798131,2.387000084,,,,,,,,,,,,,,,,,,,,,,,,,,,,,,,,,,,,,,,,,,,,,,,,,,,,,,,,,,,,,,,,,,,,,,,,
160,1729688245.327225,38960,0,33.637090485835095,72.99130830798131,2.387000084,,,,,,,,,,,,,,,,,,,,,,,,,,,,,,,,,,,,,,,,,,,,,,,,,,,,,,,,,,,,,,,,,,,,,,,,
161,1729688245.3272984,38961,0,33.637090485835095,72.99130830798131,2.387000084,,,,,,,,,,,,,,,,,,,,,,,,,,,,,,,,,,,,,,,,,,,,,,,,,,,,,,,,,,,,,,,,,,,,,,,1729688240.700751,9.4
162,1729688245.330155,39073,0,33.63709046705916,72.99130822310988,2.4019999504089355,,,,,,,,,,,,,,,,,,,,,,,,,,,,,,,,,,,,,,,,,,,,,,,,,,,,,,,,,,,,,,,,,,,,,,,,
163,1729688245.487276,40332,0,33.63709036705915,72.99130832310986,2.4110000133514404,,,,,,,,,,,,,,,,,,,,,,,,,,,,,,,,,,,,,,,,,,,,,,,,,,,,,,,,,,,,,,,,,,,,,,,,
164,1729688245.4953246,40363,0,33.63709035182347,72.99130816614955,2.4110000133514404,,,,,,,,,,,,,,,,,,,,,,,,,,,,,,,,,,,,,,,,,,,,,,,,,,,,,,,,,,,,,,,,,,,,,,,,
165,1729688245.5121987,40364,0,33.63709035182347,72.99130816614955,2.4110000133514404,,,,,,,,,,,,,,,,,,,,,,,,,,,,,,,,,,,,,,,,,,,,,,,,,,,,,,,,,,,,,,,,,,,,,,,,
166,1729688245.5122428,40372,0,33.63709035182347,72.99130816614955,2.4110000133514404,,,,,,,,,,,,,,,,,,,,,,,,,,,,,,,,,,,,,,,,,,,,,,,,,,,,,,,,,,,,,,,,,,,,,,,,
167,1729688245.5125182,40373,0,33.63709033722658,72.99130800910169,2.4189999103546143,,,,,,,,,,,,,,,,,,,,,,,,,,,,,,,,,,,,,,,,,,,,,,,,,,,,,,,,,,,,,,,,,,,,,,,,
168,1729688245.5125394,40382,0,33.63709033722658,72.99130800910169,2.4189999103546143,,,,,,,,,,,,,,,,,,,,,,,,,,,,,,,,,,,,,,,,,,,,,,,,,,,,1729688241.0356336,2309,1729688241,33.6370905,72.9912993,551.9799805,1.5707963705062866,,,,,,,,,,,,,,
169,1729688245.515582,40397,0,33.63709023722659,72.99130810910168,2.4189999103546143,,,,,,,,,,,,,,,,,,,,,,,,,,,,,,,,,,,,,,,,,,,,,,,,,,,,,,,,,,,,,,,,,,,,,,,,
170,1729688245.515615,40399,0,33.63709023722659,72.99130810910168,2.4189999103546143,,,,,,,,,,,,,,,,,,,,,,,,,,,,,,,,,,,,,,,,,,,,,,,,,,,,,,,,,,,,,,,,,,,,,,,,
171,1729688245.5156465,40409,0,33.63709023722659,72.99130810910168,2.4189999103546143,1729688232.3391025,21360,1729688232,0.082999997,0.01,0,-0.01,1729688231.555972,21348,1729688231,6.5226540717056825,8.374812899732715,-0.038,-0.004329289,0.024444943,-0.171002478,-0.02,0.04,-0.03,1729688231.5565467,21351,1729688231,-0.004372443,0.024487688,-0.171087328,-0.984941806,-0.000512146,-0.000646269,-0.000106436,1729688232.1291192,21357,1729688232,1000,1000,1000,1000,0,1729688232.529882,21361,1729688232,0.065216579,0.059126154,70,0,550.7199707,0.027519085,1729688231,504.0360566158587,72.9913144,33.6370887,12,,,,,,,,,,,,,,,,,,,,,
172,1729688245.5156603,40412,0,33.63709023722659,72.99130810910168,2.4189999103546143,,,,,,,,,,,,,,,,,,,,,,,,,,,,,,,,,,,,,,,,,,,,,,,,,,,,,,,,,,,,,,,,,,,,,,,,
173,1729688245.5157511,40414,0,33.63709023722659,72.99130810910168,2.4189999103546143,,,,,,,,,,,,,,,,,,,,,,,,,,,,,,,,,,,,,,,,,,,,,,,,,,,,,,,,,,,,,,,,,,,,,,,,
174,1729688245.5157764,40419,0,33.63709023722659,72.99130810910168,2.4189999103546143,,,,,,,,,,,,,,,,,,,,,,,,,,,,,,,,,,,,,,,,,,,,,,,,,,,,,,,,,,,,,,,,,,,,,,,,
175,1729688245.5159016,40420,0,33.63709023722659,72.99130810910168,2.4189999103546143,,,,,,,,,,,,,,,,,,,,,,,,,,,,,,,,,,,,,,,,,,,,,,,,,,,,,,,,,,,,,,,,,,,,,,,,
176,1729688245.5182655,40435,0,33.63709023722659,72.99130810910168,2.4189999103546143,,,,,,,,,,,,,,,,,,,,,,,,,,,,,,,,,,,,,,,,,,,,,,,,,,,,,,,,,,,,,,,,,,,,,,,,
177,1729688246,40446,0,33.63709023722659,72.99130810910168,2.4189999103546143,,,,,,,,,,,,,,,,,,,,,,,,,,,,,,,,,,,,,,,,,,,,,,,,,,,,,,,,,,,1729688231.9660442,3057,1,0,0,1,5,,,,,,,
178,1729688245.5196486,40451,0,33.63709023722659,72.99130810910168,2.4189999103546143,,,,,,,,,,,,,,,,,,,,,,,,,,,,,,,,,,,,,,,,,,,,,,,,,,,,,,,,,,,,,,,,,,,,,,,,
179,1729688245.5209837,40454,0,33.63709023722659,72.99130810910168,2.4189999103546143,,,,,,,,,,,,,,,,,,,,,,,,,,,,,,,,,,,,,,,,,,,,,,,,,,,,,,,,,,,,,,,,,,,,,,,,
180,1729688245.5225153,40460,0,33.63709023722659,72.99130810910168,2.4189999103546143,,,,,,,,,,,,,,,,,,,,,,,,,,,,,,,,,,,,,,,,,,,,,,,,,,,,,,,,,,,,,,,,,,,,,,,,
181,1729688245.6541104,40484,0,33.63709023722659,72.99130810910168,2.4189999103546143,,,,,,,,,,,,,,,,,,,,,,,,,,,,,,,,,,,,,,,,,,,,,,,,,,,,,,,,,,,,,,,,,,,,,,,,
182,1729688245.664492,40499,0,33.63709023722659,72.99130810910168,2.4189999103546143,,,,,,,,,,,,,,,,,,,,,,,,,,,,,,,,,,,,,,,,,,,,,,,,,,,,,,,,,,,,,,,,,,,,,,,,
183,1729688245.664529,40513,0,33.63709023722659,72.99130810910168,2.4189999103546143,,,,,,,,,,,,,,,,,,,,,,,,,,,,,,,,,,,,,,,,,,,,,,,,,,,,,,,,,,,,,,,,,,,,,,,,
184,1729688245.664626,40528,0,33.63709023722659,72.99130810910168,2.4189999103546143,,,,,,,,,,,,,,,,,,,,,,,,,,,,,,,,,,,,,,,,,,,,,,,,,,,,,,,,,,,,,,,,,,,,,,,,
185,1729688245.6646545,40543,0,33.63709023722659,72.99130810910168,2.4189999103546143,,,,,,,,,,,,,,,,,,,,,,,,,,,,,,,,,,,,,,,,,,,,,,,,,,,,,,,,,,,,,,,,,,,,,,,,
186,1729688245.6646683,40557,0,33.63709023722659,72.99130810910168,2.4189999103546143,,,,,,,,,,,,,,,,,,,,,,,,,,,,,,,,,,,,,,,,,,,,,,,,,,,,,,,,,,,,,,,,,,,,,,,,
187,1729688245.6646807,40572,0,33.63709023722659,72.99130810910168,2.4189999103546143,,,,,,,,,,,,,,,,,,,,,,,,,,,,,,,,,,,,,,,,,,,,,,,,,,,,,,,,,,,,,,,,,,,,,,,,
188,1729688245.664764,40585,0,33.63709023722659,72.99130810910168,2.4189999103546143,,,,,,,,,,,,,,,,,,,,,,,,,,,,,,,,,,,,,,,,,,,,,,,,,,,,,,,,,,,,,,,,,,,,,,,,
189,1729688245.664784,40999,0,33.63709023722659,72.99130810910168,2.4189999103546143,,,,,,,,,,,,,,,,,,,,,,,,,,,,,,,,,,,,,,,,,,,,,,,,,,,,,,,,,,,,,,,,,,,,,,,,
190,1729688245.664796,41055,0,33.637090216529764,72.99130787337393,2.430000066757202,1729688232.4380074,21361,1729688232,0.077,0.01,0,-0.01,1729688231.5561547,21349,1729688231,6.522654064116515,8.385905365343296,-0.033,-0.004333594,0.024454788,-0.171026846,-0.02,0.04,-0.03,1729688231.6246738,21352,1729688231,-0.004372817,0.024501503,-0.171115736,-0.984936526,-0.000300729,-0.001480898,-0.001172904,1729688232.229487,21358,1729688232,1000,1000,1000,1000,0,1729688232.6303835,21362,1729688232,0.064612672,0.059230562,70,0,550.7199707,0.025817422,1729688231,504.0460574102117,72.9913146,33.6370887,12,,,,,,,,,,,,,,,,,,,,,
191,1729688245.664842,41451,0,33.637090216529764,72.99130787337393,2.430000066757202,,,,,,,,,,,,,,,,,,,,,,,,,,,,,,,,,,,,,,,,,,,,,,,,,,,,,,,,,,,,,,,,,,,,,,,,
192,1729688245.6793387,41474,0,33.637090216529764,72.99130787337393,2.430000066757202,,,,,,,,,,,,,,,,,,,,,,,,,,,,,,,,,,,,,,,,,,,,,,,,,,,,,,,,,,,,,,,,,,,,,,,,
193,1729688245.695529,41597,0,33.637090216529764,72.99130787337393,2.430000066757202,,,,,,,,,,,,,,,,,,,,,,,,,,,,,,,,,,,,,,,,,,,,,,,,,,,,,,,,,,,,,,,,,,,,,,,,
194,1729688245.6979551,41746,0,33.637090216529764,72.99130787337393,2.430000066757202,,,,,,,,,,,,,,,,,,,,,,,,,,,,,,,,,,,,,,,,,,,,,,,,,,,,,,,,,,,,,,,,,,,,,,,,
195,1729688245.829018,41823,0,33.63709009639101,72.99130772623258,2.443000078201294,,,,,,,,,,,,,,,,,,,,,,,,,,,,,,,,,,,,,,,,,,,,,,,,,,,,,,,,,,,,,,,,,,,,,,,,
196,1729688245.8290403,41824,0,33.63709009639101,72.99130772623258,2.443000078201294,,,,,,,,,,,,,,,,,,,,,,,,,,,,,,,,,,,,,,,,,,,,,,,,,,,,1729688241.1412427,2310,1729688241,33.6370901,72.9913074,552,1.5707963705062866,,,,,,,,,,,,,,
197,1729688245.829116,42467,0,33.63709009639101,72.99130772623258,2.443000078201294,,,,,,,,,,,,,,,,,,,,,,,,,,,,,,,,,,,,,,,,,,,,,,,,,,,,,,,,,,,,,,,,,,,,,,,,
198,1729688245.8366337,42689,0,33.63709018108954,72.99130762389264,2.451999903,,,,,,,,,,,,,,,,,,,,,,,,,,,,,,,,,,,,,,,,,,,,,,,,,,,,,,,,,,,,,,,,,,,,,,,,
199,1729688245.8388114,42725,0,33.63709018108954,72.99130762389264,2.451999903,,,,,,,,,,,,,,,,,,,,,,,,,,,,,,,,,,,,,,,,,,,,,,,,,,,,,,,,,,,,,,,,,,,,,,,,
200,1729688245.9996707,43236,0,33.63709018108954,72.99130762389264,2.451999903,,,,,,,,,,,,,,,,,,,,,,,,,,,,,,,,,,,,,,,,,,,,,,,,,,,,,,,,,,,,,,,,,,,,,,,,
201,1729688246.0060406,43240,0,33.63709018108954,72.99130772389263,2.4660000801086426,,,,,,,,,,,,,,,,,,,,,,,,,,,,,,,,,,,,,,,,,,,,,,,,,,,,,,,,,,,,,,,,,,,,,,,,
202,1729688246.0060763,43320,0,33.63709017304617,72.99130761143287,2.4660000801086426,,,,,,,,,,,,,,,,,,,,,,,,,,,,,,,,,,,,,,,,,,,,,,,,,,,,,,,,,,,,,,,,,,,,,,,,
203,1729688246.0060935,44026,0,33.63709017304617,72.99130761143287,2.4660000801086426,,,,,,,,,,,,,,,,,,,,,,,,,,,,,,,,,,,,,,,,,,,,,,,,,,,,,,,,,,,,,,,,,,,,,,,,
204,1729688246.008947,44070,0,33.63709016837704,72.99130764394107,2.483999967575073,,,,,,,,,,,,,,,,,,,,,,,,,,,,,,,,,,,,,,,,,,,,,,,,,,,,,,,,,,,,,,,,,,,,,,,,
205,1729688246.0320847,44242,0,33.63709016837704,72.99130764394107,2.483999967575073,,,,,,,,,,,,,,,,,,,,,,,,,,,,,,,,,,,,,,,,,,,,,,,,,,,,,,,,,,,,,,,,,,,,,,,,
206,1729688246.176942,44795,0,33.63709016837704,72.99130764394107,2.483999967575073,,,,,,,,,,,,,,,,,,,,,,,,,,,,,,,,,,,,,,,,,,,,,,,,,,,,,,,,,,,,,,,,,,,,,,,,
207,1729688246.1852813,44866,0,33.63709026837704,72.99130774394108,2.5,,,,,,,,,,,,,,,,,,,,,,,,,,,,,,,,,,,,,,,,,,,,,,,,,,,,,,,,,,,,,,,,,,,,,,,,
208,1729688246,44867,0,33.63709026837704,72.99130774394108,2.5,,,,,,,,,,,,,,,,,,,,,,,,,,,,,,,,,,,,,,,,,,,,,,,,,,,,,,,,,,,,,,,,,,,,,,,,
209,1729688246.1855145,45464,0,33.63709025757927,72.99130758078857,2.5,1729688232.5404384,21362,1729688232,0.081,0.01,0,-0.01,1729688231.5562837,21350,1729688231,6.522654074,8.385905378629914,-0.027,-0.004355793,0.024465599,-0.171051038,-0.02,0.04,-0.03,1729688231.7241602,21353,1729688231,-0.004353855,0.024499165,-0.17114007,-0.98493244,-0.000313792,0.000113344,-0.000272951,1729688232.3279102,21359,1729688232,1000,1000,1000,1000,0,1729688232.7311022,21363,1729688232,0.064719751,0.059788335,70,0,550.7099609,0.02477904,1729688231,504.04605802315865,72.9913146,33.6370888,12,,,,,,,,,,,,,,,,,,,,,
210,1729688246.1950848,45567,0,33.63709025757927,72.99130758078857,2.5,,,,,,,,,,,,,,,,,,,,,,,,,,,,,,,,,,,,,,,,,,,,,,,,,,,,,,,,,,,,,,,,,,,,,,,,
211,1729688246.196766,45568,0,33.63709025757927,72.99130758078857,2.5,,,,,,,,,,,,,,,,,,,,,,,,,,,,,,,,,,,,,,,,,,,,,,,,,,,,,,,,,,,,,,,,,,,,,,,,
212,1729688246.3486094,46360,0,33.637090245463284,72.99130748379613,2.510999917984009,,,,,,,,,,,,,,,,,,,,,,,,,,,,,,,,,,,,,,,,,,,,,,,,,,,,,,,,,,,,,,,,,,,,,,,,
213,1729688246.3542025,46462,0,33.63709033404658,72.99130738,2.5199999809265137,,,,,,,,,,,,,,,,,,,,,,,,,,,,,,,,,,,,,,,,,,,,,,,,,,,,,,,,,,,,,,,,,,,,,,,,
214,1729688246.362136,46751,0,33.63709033404658,72.99130738,2.5199999809265137,,,,,,,,,,,,,,,,,,,,,,,,,,,,,,,,,,,,,,,,,,,,,,,,,,,,,,,,,,,,,,,,,,,,,,,,
215,1729688246.518937,47088,0,33.63709033404658,72.99130738,2.5199999809265137,,,,,,,,,,,,,,,,,,,,,,,,,,,,,,,,,,,,,,,,,,,,,,,,,,,,,,,,,,,,,,,,,,,,,,,,
216,1729688246.5237792,47857,0,33.637090434046584,72.99130738,2.5199999809265137,,,,,,,,,,,,,,,,,,,,,,,,,,,,,,,,,,,,,,,,,,,,,,,,,,,,,,,,,,,,,,,,,,,,,,,,
217,1729688246.523812,47869,0,33.63709042,72.99130718,2.5299999713897705,,,,,,,,,,,,,,,,,,,,,,,,,,,,,,,,,,,,,,,,,,,,,,,,,,,,,,,,,,,,,,,,,,,,,,,,
218,1729688246.5238268,47872,0,33.63709052,72.99130717829472,2.5299999713897705,,,,,,,,,,,,,,,,,,,,,,,,,,,,,,,,,,,,,,,,,,,,,,,,,,,,,,,,,,,,,,,,,,,,,,,,
219,1729688246.531997,48049,0,33.637090519428355,72.99130708814074,2.5429999828338623,,,,,,,,,,,,,,,,,,,,,,,,,,,,,,,,,,,,,,,,,,,,,,,,,,,,,,,,,,,,,,,,,,,,,,,,
220,1729688246.533214,48085,0,33.637090519428355,72.99130708814074,2.5429999828338623,,,,,,,,,,,,,,,,,,,,,,,,,,,,,,,,,,,,,,,,,,,,,,,,,,,,,,,,,,,,,,,,,,,,,,,,
221,1729688246.6932926,48640,0,33.63709062674231,72.99130734026711,2.552999973297119,,,,,,,,,,,,,,,,,,,,,,,,,,,,,,,,,,,,,,,,,,,,,,,,,,,,,,,,,,,,,,,,,,,,,,,,
222,1729688246.7022884,49306,0,33.63709062674231,72.99130734026711,2.552999973297119,,,,,,,,,,,,,,,,,,,,,,,,,,,,,,,,,,,,,,,,,,,,,,,,,,,,,,,,,,,,,,,,,,,,,,,,
223,1729688246.7023177,49401,0,33.63709062674231,72.99130734026711,2.552999973297119,,,,,,,,,,,,,,,,,,,,,,,,,,,,,,,,,,,,,,,,,,,,,,,,,,,,,,,,,,,,,,,,,,,,,,,,
224,1729688246.7036924,49414,0,33.63709074679727,72.99130770631402,2.562999963760376,,,,,,,,,,,,,,,,,,,,,,,,,,,,,,,,,,,,,,,,,,,,,,,,,,,,1729688241.2402077,2311,1729688241,33.6370901,72.9913074,552,1.5707963705062866,,,,,,,,,,,,,,
225,1729688246.7365282,49624,0,33.63709074679727,72.99130770631402,2.562999963760376,,,,,,,,,,,,,,,,,,,,,,,,,,,,,,,,,,,,,,,,,,,,,,,,,,,,,,,,,,,,,,,,,,,,,,,,
226,1729688246.797363,50143,0,33.63709074679727,72.99130770631402,2.562999963760376,,,,,,,,,,,,,,,,,,,,,,,,,,,,,,,,,,,,,,,,,,,,,,,,,,,,,,,,,,,,,,,,,,,,,,,,
227,1729688246.9004235,50914,0,33.63709087702699,72.99130817,2.569000005722046,,,,,,,,,,,,,,,,,,,,,,,,,,,,,,,,,,,,,,,,,,,,,,,,,,,,,,,,,,,,,,,,,,,,,,,,
228,1729688246.929604,51135,0,33.63709101,72.99130864529916,2.575999975204468,1729688232.6394825,21363,1729688232,0.086000003,0.01,0,-0.01,1729688231.556631,21351,1729688231,6.522654074,8.385905378629914,-0.022,-0.004372443,0.024487688,-0.171087328,-0.02,0.04,-0.03,1729688231.8256326,21354,1729688231,-0.004337418,0.024527877,-0.171168429,-0.98492687,0.000124104,0.000517135,-0.000352136,1729688232.4279358,21360,1729688232,1000,1000,1000,1000,0,1729688232.8296516,21364,1729688232,0.064188786,0.059145905,70,0,550.7099609,0.024939163,1729688231,504.0560580231586,72.9913146,33.6370888,12,,,,,,,,,,,,,,,,,,,,,
229,1729688246.931349,51138,0,33.63709101,72.99130864529916,2.575999975204468,,,,,,,,,,,,,,,,,,,,,,,,,,,,,,,,,,,,,,,,,,,,,,,,,,,,,,,,,,,,,,,,,,,,,,,,
230,1729688247.0259185,51881,0,33.63709104758774,72.99130902128753,2.5850000381469727,,,,,,,,,,,,,,,,,,,,,,,,,,,,,,,,,,,,,,,,,,,,,,,,,,,,,,,,,,,,,,,,,,,,,,,,
231,1729688247.1003933,52490,0,33.63709104758774,72.99130902128753,2.5850000381469727,,,,,,,,,,,,,,,,,,,,,,,,,,,,,,,,,,,,,,,,,,,,,,,,,,,,,,,,,,,,,,,,,,,,,,,,
232,1729688247,52511,0,33.63709116594972,72.99130931190143,2.588000059127808,,,,,,,,,,,,,,,,,,,,,,,,,,,,,,,,,,,,,,,,,,,,,,,,,,,,,,,,,,,,,,,,,,,,,,,,
233,1729688247.1274643,52661,0,33.63709126594973,72.99130931190143,2.588000059127808,,,,,,,,,,,,,,,,,,,,,,,,,,,,,,,,,,,,,,,,,,,,,,,,,,,,,,,,,,,,,,,,,,,,,,,,
234,1729688247.1826355,53129,0,33.63709126594973,72.99130931190143,2.588000059127808,,,,,,,,,,,,,,,,,,,,,,,,,,,,,,,,,,,,,,,,,,,,,,,,,,,,,,,,,,,,,,,,,,,,,,,,
235,1729688247.185326,53130,0,33.63709126594973,72.99130931190143,2.588000059127808,,,,,,,,,,,,,,,,,,,,,,,,,,,,,,,,,,,,,,,,,,,,,,,,,,,,,,,,,,,,,,,,,,,,,,,,
236,1729688247.2301407,53450,0,33.63709136594972,72.99130931190145,2.594000101089477,,,,,,,,,,,,,,,,,,,,,,,,,,,,,,,,,,,,,,,,,,,,,,,,,,,,,,,,,,,,,,,,,,,,,,,,
237,1729688247.2856736,53914,0,33.63709136594972,72.99130931190145,2.594000101089477,,,,,,,,,,,,,,,,,,,,,,,,,,,,,,,,,,,,,,,,,,,,,,,,,,,,,,,,,,,,,,,,,,,,,,,,
238,1729688247.3339796,54196,0,33.63709138062647,72.99130946,2.594000101089477,,,,,,,,,,,,,,,,,,,,,,,,,,,,,,,,,,,,,,,,,,,,,,,,,,,,,,,,,,,,,,,,,,,,,,,,
239,1729688247.3361971,54197,0,33.63709138062647,72.99130946,2.594000101089477,,,,,,,,,,,,,,,,,,,,,,,,,,,,,,,,,,,,,,,,,,,,,,,,,,,,,,,,,,,,,,,,,,,,,,,,
240,1729688247.4275243,54978,0,33.63709148934414,72.99130954158025,2.5989999771118164,,,,,,,,,,,,,,,,,,,,,,,,,,,,,,,,,,,,,,,,,,,,,,,,,,,,,,,,,,,,,,,,,,,,,,,,
241,1729688247.4297523,54980,0,33.63709157719068,72.99130942,2.6010000705718994,,,,,,,,,,,,,,,,,,,,,,,,,,,,,,,,,,,,,,,,,,,,,,,,,,,,,,,,,,,,,,,,,,,,,,,,
242,1729688247.431799,55004,0,33.63709157719068,72.99130942,2.6010000705718994,,,,,,,,,,,,,,,,,,,,,,,,,,,,,,,,,,,,,,,,,,,,,,,,,,,,,,,,,,,,,,,,,,,,,,,,
243,1729688247.4976962,55522,0,33.63709157719068,72.99130942,2.6010000705718994,,,,,,,,,,,,,,,,,,,,,,,,,,,,,,,,,,,,,,,,,,,,,,,,,,,,,,,,,,,,,,,,,,,,,,,,
244,1729688247.558178,56004,0,33.637091652890554,72.99130917736402,2.6080000400543213,,,,,,,,,,,,,,,,,,,,,,,,,,,,,,,,,,,,,,,,,,,,,,,,,,,,,,,,,,,,,,,,,,,,,,,,
245,1729688247.5900974,56254,0,33.637091652890554,72.99130917736402,2.6080000400543213,,,,,,,,,,,,,,,,,,,,,,,,,,,,,,,,,,,,,,,,,,,,,,,,,,,,,,,,,,,,,,,,,,,,,,,,
246,1729688247.6053596,56337,0,33.637091652890554,72.99130917736402,2.6080000400543213,,,,,,,,,,,,,,,,,,,,,,,,,,,,,,,,,,,,,,,,,,,,,,,,,,,,,,,,,,,,,,,,,,,,,,,,
247,1729688247.6277382,56497,0,33.63709172719153,72.99130879687316,2.6080000400543213,1729688232.7393208,21364,1729688232,0.090000004,0.01,0,-0.01,1729688231.6245332,21352,1729688231,6.522654084809113,8.385905391423211,-0.019,-0.004372817,0.024501503,-0.171115736,-0.02,0.04,-0.03,1729688231.9243135,21355,1729688231,-0.004332004,0.024572048,-0.171218154,-0.98491715,-0.000731473,-0.000285503,-0.000390886,1729688232.5294464,21361,1729688232,1000,1000,1000,1000,0,1729688232.9293582,21365,1729688232,0.063471377,0.059025474,70,0,550.7000122070312,0.023336858,1729688231,504.0560580231586,72.9913146,33.6370888,12,,,,,,,,,,,,,,,,,,,,,
248,1729688247.683553,56977,0,33.63709172719153,72.99130879687316,2.621999979019165,,,,,,,,,,,,,,,,,,,,,,,,,,,,,,,,,,,,,,,,,,,,,,,,,,,,,,,,,,,,,,,,,,,,,,,,
249,1729688247.7012577,57059,0,33.63709172719153,72.99130879687316,2.621999979019165,,,,,,,,,,,,,,,,,,,,,,,,,,,,,,,,,,,,,,,,,,,,,,,,,,,,,,,,,,,,,,,,,,,,,,,,
250,1729688247.7032478,57065,0,33.637091715580084,72.99130866214436,2.638999938964844,,,,,,,,,,,,,,,,,,,,,,,,,,,,,,,,,,,,,,,,,,,,,,,,,,,,,,,,,,,,,,,,,,,,,,,,
251,1729688247.703274,57069,0,33.637091715580084,72.99130866214436,2.638999938964844,,,,,,,,,,,,,,,,,,,,,,,,,,,,,,,,,,,,,,,,,,,,,,,,,,,,,,,,,,,,,,,,,,,,,,,,
252,1729688247.7035856,57073,0,33.637091715580084,72.99130866214436,2.638999938964844,,,,,,,,,,,,,,,,,,,,,,,,,,,,,,,,,,,,,,,,,,,,,,,,,,,,1729688241.3367836,2312,1729688241,33.6370901,72.9913074,552,1.5707963705062866,,,,,,,,,,,,,,
253,1729688247.7036035,57077,0,33.637091715580084,72.99130866214436,2.638999938964844,,,,,,,,,,,,,,,,,,,,,,,,,,,,,,,,,,,,,,,,,,,,,,,,,,,,,,,,,,,,,,,,,,,,,,,,
254,1729688247.703616,57080,0,33.637091715580084,72.99130866214436,2.638999938964844,,,,,,,,,,,,,,,,,,,,,,,,,,,,,,,,,,,,,,,,,,,,,,,,,,,,,,,,,,,,,,,,,,,,,,,,
255,1729688247.7037518,57081,0,33.637091715580084,72.99130866214436,2.638999938964844,,,,,,,,,,,,,,,,,,,,,,,,,,,,,,,,,,,,,,,,,,,,,,,,,,,,,,,,,,,,,,,,,,,,,,,,
256,1729688247.7067127,57083,0,33.637091715580084,72.99130866214436,2.638999938964844,,,,,,,,,,,,,,,,,,,,,,,,,,,,,,,,,,,,,,,,,,,,,,,,,,,,,,,,,,,,,,,,,,,,,,,,
257,1729688247.7067542,57084,0,33.637091715580084,72.99130866214436,2.638999938964844,,,,,,,,,,,,,,,,,,,,,,,,,,,,,,,,,,,,,,,,,,,,,,,,,,,,,,,,,,,,,,,,,,,,,,,,
258,1729688247.707247,57085,0,33.637091715580084,72.99130866214436,2.638999938964844,,,,,,,,,,,,,,,,,,,,,,,,,,,,,,,,,,,,,,,,,,,,,,,,,,,,,,,,,,,,,,,,,,,,,,,,
259,1729688247.707275,57086,0,33.637091715580084,72.99130866214436,2.638999938964844,,,,,,,,,,,,,,,,,,,,,,,,,,,,,,,,,,,,,,,,,,,,,,,,,,,,,,,,,,,,,,,,,,,,,,,,
260,1729688247.7072923,57087,0,33.637091715580084,72.99130866214436,2.638999938964844,,,,,,,,,,,,,,,,,,,,,,,,,,,,,,,,,,,,,,,,,,,,,,,,,,,,,,,,,,,,,,,,,,,,,,,,
261,1729688247.712955,57089,0,33.637091715580084,72.99130866214436,2.638999938964844,,,,,,,,,,,,,,,,,,,,,,,,,,,,,,,,,,,,,,,,,,,,,,,,,,,,,,,,,,,,,,,,,,,,,,,,
262,1729688247.7129924,57090,0,33.637091715580084,72.99130866214436,2.638999938964844,,,,,,,,,,,,,,,,,,,,,,,,,,,,,,,,,,,,,,,,,,,,,,,,,,,,,,,,,,,,,,,,,,,,,,,,
263,1729688247.713072,57091,0,33.637091715580084,72.99130866214436,2.638999938964844,,,,,,,,,,,,,,,,,,,,,,,,,,,,,,,,,,,,,,,,,,,,,,,,,,,,,,,,,,,,,,,,,,,,,,,,
264,1729688247.7130866,57092,0,33.637091715580084,72.99130866214436,2.638999938964844,,,,,,,,,,,,,,,,,,,,,,,,,,,,,,,,,,,,,,,,,,,,,,,,,,,,,,,,,,,,,,,,,,,,,,,,
265,1729688247.7131171,57094,0,33.637091715580084,72.99130866214436,2.638999938964844,,,,,,,,,,,,,,,,,,,,,,,,,,,,,,,,,,,,,,,,,,,,,,,,,,,,,,,,,,,,,,,,,,,,,,,,
266,1729688247.7131302,57095,0,33.637091715580084,72.99130866214436,2.638999938964844,1729688232.8397143,21365,1729688232,0.094999999,0.01,0,-0.01,1729688231.7244446,21353,1729688231,6.522654066787214,8.396997842158676,-0.022,-0.004353855,0.024499165,-0.17114007,-0.02,0.04,-0.03,1729688232.024584,21356,1729688232,-0.0043143,0.024560823,-0.171283717,-0.984906108,-0.001171227,-0.001087301,0.000218726,1729688232.630385,21362,1729688232,1000,1000,1000,1000,0,1729688233.0263886,21366,1729688233,0.063712813,0.060248632,70,0,550.6900024414062,0.020722562,1729688231,504.0660580231586,72.9913146,33.6370888,12,,,,,,,,,,,,,,,,,,,,,
267,1729688247.7131438,57096,0,33.637091715580084,72.99130866214436,2.638999938964844,,,,,,,,,,,,,,,,,,,,,,,,,,,,,,,,,,,,,,,,,,,,,,,,,,,,,,,,,,,,,,,,,,,,,,,,
268,1729688247.713194,57097,0,33.637091715580084,72.99130866214436,2.638999938964844,,,,,,,,,,,,,,,,,,,,,,,,,,,,,,,,,,,,,,,,,,,,,,,,,,,,,,,,,,,,,,,,,,,,,,,,
269,1729688247.7138455,57098,0,33.637091715580084,72.99130866214436,2.638999938964844,,,,,,,,,,,,,,,,,,,,,,,,,,,,,,,,,,,,,,,,,,,,,,,,,,,,,,,,,,,,,,,,,,,,,,,,
270,1729688247.7138772,57099,0,33.637091715580084,72.99130866214436,2.638999938964844,,,,,,,,,,,,,,,,,,,,,,,,,,,,,,,,,,,,,,,,,,,,,,,,,,,,,,,,,,,,,,,,,,,,,,,,
271,1729688247.713936,57100,0,33.637091715580084,72.99130866214436,2.638999938964844,,,,,,,,,,,,,,,,,,,,,,,,,,,,,,,,,,,,,,,,,,,,,,,,,,,,,,,,,,,,,,,,,,,,,,,,
272,1729688247.7139497,57101,0,33.637091715580084,72.99130866214436,2.638999938964844,,,,,,,,,,,,,,,,,,,,,,,,,,,,,,,,,,,,,,,,,,,,,,,,,,,,,,,,,,,,,,,,,,,,,,,,
273,1729688247.714011,57102,0,33.637091715580084,72.99130866214436,2.638999938964844,,,,,,,,,,,,,,,,,,,,,,,,,,,,,,,,,,,,,,,,,,,,,,,,,,,,,,,,,,,,,,,,,,,,,,,,
274,1729688247.714183,57103,0,33.637091715580084,72.99130866214436,2.638999938964844,,,,,,,,,,,,,,,,,,,,,,,,,,,,,,,,,,,,,,,,,,,,,,,,,,,,,,,,,,,,,,,,,,,,,,,,
275,1729688247.7168128,57105,0,33.637091715580084,72.99130866214436,2.638999938964844,,,,,,,,,,,,,,,,,,,,,,,,,,,,,,,,,,,,,,,,,,,,,,,,,,,,,,,,,,,,,,,,,,,,,,,,
276,1729688247.7168567,57106,0,33.637091715580084,72.99130866214436,2.638999938964844,,,,,,,,,,,,,,,,,,,,,,,,,,,,,,,,,,,,,,,,,,,,,,,,,,,,,,,,,,,,,,,,,,,,,,,,
277,1729688247.7169836,57107,0,33.637091715580084,72.99130866214436,2.638999938964844,,,,,,,,,,,,,,,,,,,,,,,,,,,,,,,,,,,,,,,,,,,,,,,,,,,,,,,,,,,,,,,,,,,,,,,,
278,1729688247.7170002,57108,0,33.637091715580084,72.99130866214436,2.638999938964844,,,,,,,,,,,,,,,,,,,,,,,,,,,,,,,,,,,,,,,,,,,,,,,,,,,,,,,,,,,,,,,,,,,,,,,,
279,1729688247.7170117,57109,0,33.637091715580084,72.99130866214436,2.638999938964844,,,,,,,,,,,,,,,,,,,,,,,,,,,,,,,,,,,,,,,,,,,,,,,,,,,,,,,,,,,,,,,,,,,,,,,,
280,1729688247.7171402,57110,0,33.637091715580084,72.99130866214436,2.638999938964844,,,,,,,,,,,,,,,,,,,,,,,,,,,,,,,,,,,,,,,,,,,,,,,,,,,,1729688241.4397123,2313,1729688241,33.6370901,72.9913074,552,1.5707963705062866,,,,,,,,,,,,,,
281,1729688247.7171657,57111,0,33.637091715580084,72.99130866214436,2.638999938964844,,,,,,,,,,,,,,,,,,,,,,,,,,,,,,,,,,,,,,,,,,,,,,,,,,,,,,,,,,,,,,,,,,,,,,,,
282,1729688247.717842,57112,0,33.637091715580084,72.99130866214436,2.638999938964844,,,,,,,,,,,,,,,,,,,,,,,,,,,,,,,,,,,,,,,,,,,,,,,,,,,,,,,,,,,,,,,,,,,,,,,,
283,1729688247.7178605,57113,0,33.637091715580084,72.99130866214436,2.638999938964844,,,,,,,,,,,,,,,,,,,,,,,,,,,,,,,,,,,,,,,,,,,,,,,,,,,,,,,,,,,,,,,,,,,,,,,,
284,1729688247.7179475,57114,0,33.637091715580084,72.99130866214436,2.638999938964844,,,,,,,,,,,,,,,,,,,,,,,,,,,,,,,,,,,,,,,,,,,,,,,,,,,,,,,,,,,,,,,,,,,,,,,,
285,1729688247.7182417,57115,0,33.637091715580084,72.99130866214436,2.638999938964844,1729688232.9408762,21366,1729688232,0.1000000014901161,0.01,0,-0.01,1729688231.8257809,21354,1729688231,6.522654056799777,8.396997828909784,-0.034,-0.004337418,0.024527877,-0.171168429,-0.03,0.04,-0.03,1729688232.124177,21357,1729688232,-0.00430961,0.024539964,-0.171380349,-0.984889838,5.677714943885803e-05,-0.000735499,0.000334471,1729688232.7308843,21363,1729688232,1000,1000,1000,1000,0,1729688233.1281862,21367,1729688233,0.064826615,0.062079307,70,0,550.6799926757812,0.018672161,1729688231,504.05605863610566,72.9913146,33.6370889,12,,,,,,,,,,,,,,,,,,,,,
286,1729688247.7182803,57116,0,33.637091715580084,72.99130866214436,2.638999938964844,,,,,,,,,,,,,,,,,,,,,,,,,,,,,,,,,,,,,,,,,,,,,,,,,,,,,,,,,,,,,,,,,,,,,,,,
287,1729688247.7183635,57117,0,33.637091715580084,72.99130866214436,2.638999938964844,,,,,,,,,,,,,,,,,,,,,,,,,,,,,,,,,,,,,,,,,,,,,,,,,,,,,,,,,,,,,,,,,,,,,,,,
288,1729688247.7184455,57118,0,33.637091715580084,72.99130866214436,2.638999938964844,,,,,,,,,,,,,,,,,,,,,,,,,,,,,,,,,,,,,,,,,,,,,,,,,,,,,,,,,,,,,,,,,,,,,,,,
289,1729688247.7199278,57119,0,33.637091715580084,72.99130866214436,2.638999938964844,,,,,,,,,,,,,,,,,,,,,,,,,,,,,,,,,,,,,,,,,,,,,,,,,,,,,,,,,,,,,,,,,,,,,,,,
290,1729688248,57120,0,33.637091715580084,72.99130866214436,2.638999938964844,,,,,,,,,,,,,,,,,,,,,,,,,,,,,,,,,,,,,,,,,,,,,,,,,,,,,,,,,,,,,,,,,,,,,,,,
291,1729688247.720055,57121,0,33.637091715580084,72.99130866214436,2.638999938964844,,,,,,,,,,,,,,,,,,,,,,,,,,,,,,,,,,,,,,,,,,,,,,,,,,,,,,,,,,,,,,,,,,,,,,,,
292,1729688247.720168,57122,0,33.637091715580084,72.99130866214436,2.638999938964844,,,,,,,,,,,,,,,,,,,,,,,,,,,,,,,,,,,,,,,,,,,,,,,,,,,,,,,,,,,,,,,,,,,,,,,,
293,1729688247.7201872,57123,0,33.637091715580084,72.99130866214436,2.638999938964844,,,,,,,,,,,,,,,,,,,,,,,,,,,,,,,,,,,,,,,,,,,,,,,,,,,,,,,,,,,,,,,,,,,,,,,,
294,1729688247.7203257,57124,0,33.637091715580084,72.99130866214436,2.638999938964844,,,,,,,,,,,,,,,,,,,,,,,,,,,,,,,,,,,,,,,,,,,,,,,,,,,,,,,,,,,,,,,,,,,,,,,,
295,1729688247.7203462,57125,0,33.637091715580084,72.99130866214436,2.638999938964844,,,,,,,,,,,,,,,,,,,,,,,,,,,,,,,,,,,,,,,,,,,,,,,,,,,,,,,,,,,,,,,,,,,,,,,,
296,1729688247.7203586,57126,0,33.637091715580084,72.99130866214436,2.638999938964844,,,,,,,,,,,,,,,,,,,,,,,,,,,,,,,,,,,,,,,,,,,,,,,,,,,,,,,,,,,,,,,,,,,,,,,,
297,1729688247.720475,57127,0,33.637091715580084,72.99130866214436,2.638999938964844,,,,,,,,,,,,,,,,,,,,,,,,,,,,,,,,,,,,,,,,,,,,,,,,,,,,,,,,,,,,,,,,,,,,,,,,
298,1729688247.7205362,57128,0,33.637091715580084,72.99130866214436,2.638999938964844,,,,,,,,,,,,,,,,,,,,,,,,,,,,,,,,,,,,,,,,,,,,,,,,,,,,,,,,,,,,,,,,,,,,,,,,
299,1729688247.7205746,57129,0,33.637091715580084,72.99130866214436,2.638999938964844,,,,,,,,,,,,,,,,,,,,,,,,,,,,,,,,,,,,,,,,,,,,,,,,,,,,,,,,,,,,,,,,,,,,,,,,
300,1729688247.7216227,57130,0,33.637091715580084,72.99130866214436,2.638999938964844,,,,,,,,,,,,,,,,,,,,,,,,,,,,,,,,,,,,,,,,,,,,,,,,,,,,,,,,,,,,,,,,,,,,,,,,
301,1729688247.7216587,57131,0,33.637091715580084,72.99130866214436,2.638999938964844,,,,,,,,,,,,,,,,,,,,,,,,,,,,,,,,,,,,,,,,,,,,,,,,,,,,,,,,,,,,,,,,,,,,,,,,
302,1729688247.7217386,57132,0,33.637091715580084,72.99130866214436,2.638999938964844,,,,,,,,,,,,,,,,,,,,,,,,,,,,,,,,,,,,,,,,,,,,,,,,,,,,,,,,,,,,,,,,,,,,,,,,
303,1729688247.7218158,57133,0,33.637091715580084,72.99130866214436,2.638999938964844,,,,,,,,,,,,,,,,,,,,,,,,,,,,,,,,,,,,,,,,,,,,,,,,,,,,,,,,,,,,,,,,,,,,,,,,
304,1729688247.721892,57134,0,33.637091715580084,72.99130866214436,2.638999938964844,1729688233.0366752,21367,1729688233,0.096000001,0.01,0,-0.01,1729688231.9249525,21355,1729688231,6.513375726576813,8.408090274289544,-0.045,-0.004332004,0.024572048,-0.171218154,-0.03,0.04,-0.03,1729688232.225191,21358,1729688232,-0.004321605,0.024507209,-0.171438692,-0.984880447,-0.001271411,-0.000616244,-0.000154285,1729688232.8296242,21364,1729688232,1000,1000,1000,1000,0,1729688233.2284527,21368,1729688233,0.064557008,0.062152199,70,0,550.6799926757812,0.017455995,1729688231,504.04605863610567,72.9913146,33.6370889,12,,,,,,,,,,,,,,,,,,,,,
305,1729688248,57135,0,33.637091715580084,72.99130866214436,2.638999938964844,,,,,,,,,,,,,,,,,,,,,,,,,,,,,,,,,,,,,,,,,,,,,,,,,,,,,,,,,,,,,,,,,,,,,,,,
306,1729688247.722217,57136,0,33.637091715580084,72.99130866214436,2.638999938964844,,,,,,,,,,,,,,,,,,,,,,,,,,,,,,,,,,,,,,,,,,,,,,,,,,,,,,,,,,,,,,,,,,,,,,,,
307,1729688247.7222316,57137,0,33.637091715580084,72.99130866214436,2.638999938964844,,,,,,,,,,,,,,,,,,,,,,,,,,,,,,,,,,,,,,,,,,,,,,,,,,,,,,,,,,,,,,,,,,,,,,,,
308,1729688247.7222435,57138,0,33.637091715580084,72.99130866214436,2.638999938964844,,,,,,,,,,,,,,,,,,,,,,,,,,,,,,,,,,,,,,,,,,,,,,,,,,,,1729688241.5367374,2314,1729688241,33.6370905,72.9913003,552.0199584960938,1.5707963705062866,,,,,,,,,,,,,,
309,1729688247.7222557,57139,0,33.637091715580084,72.99130866214436,2.638999938964844,,,,,,,,,,,,,,,,,,,,,,,,,,,,,,,,,,,,,,,,,,,,,,,,,,,,,,,,,,,,,,,,,,,,,,,,
310,1729688247.722434,57140,0,33.637091715580084,72.99130866214436,2.638999938964844,,,,,,,,,,,,,,,,,,,,,,,,,,,,,,,,,,,,,,,,,,,,,,,,,,,,,,,,,,,,,,,,,,,,,,,,
311,1729688247.7224543,57141,0,33.637091715580084,72.99130866214436,2.638999938964844,,,,,,,,,,,,,,,,,,,,,,,,,,,,,,,,,,,,,,,,,,,,,,,,,,,,,,,,,,,,,,,,,,,,,,,,
312,1729688247.7225194,57142,0,33.637091715580084,72.99130866214436,2.638999938964844,,,,,,,,,,,,,,,,,,,,,,,,,,,,,,,,,,,,,,,,,,,,,,,,,,,,,,,,,,,,,,,,,,,,,,,,
313,1729688247.7225378,57143,0,33.637091715580084,72.99130866214436,2.638999938964844,,,,,,,,,,,,,,,,,,,,,,,,,,,,,,,,,,,,,,,,,,,,,,,,,,,,,,,,,,,,,,,,,,,,,,,,
