S.No,setpoint_raw-global_Time,setpoint_raw-global_header.seq,setpoint_raw-global_header.stamp.secs,setpoint_raw-global_latitude,setpoint_raw-global_longitude,setpoint_raw-global_altitude,battery_Time,battery_header.seq,battery_header.stamp.secs,battery_voltage,battery_current,battery_temperature,battery_percentage,global_position-local_Time,global_position-local_header.seq,global_position-local_header.stamp.secs,global_position-local_pose.pose.position.x,global_position-local_pose.pose.position.y,global_position-local_pose.pose.position.z,global_position-local_pose.pose.orientation.x,global_position-local_pose.pose.orientation.y,global_position-local_pose.pose.orientation.z,global_position-local_twist.twist.linear.x,global_position-local_twist.twist.linear.y,global_position-local_twist.twist.linear.z,imu-data_Time,imu-data_header.seq,imu-data_header.stamp.secs,imu-data_orientation.x,imu-data_orientation.y,imu-data_orientation.z,imu-data_orientation.w,imu-data_angular_velocity.x,imu-data_angular_velocity.y,imu-data_angular_velocity.z,rc-out_Time,rc-out_header.seq,rc-out_header.stamp.secs,rc-out_channels_0,rc-out_channels_1,rc-out_channels_2,rc-out_channels_3,rc-out_channels_4,vfr_hud_Time,vfr_hud_header.seq,vfr_hud_header.stamp.secs,vfr_hud_airspeed,vfr_hud_groundspeed,vfr_hud_heading,vfr_hud_throttle,vfr_hud_altitude,vfr_hud_climb,global_position-global_header.stamp.secs,global_position-global_altitude,global_position-global_longitude,global_position-global_latitude,global_position-raw-satellites_data,setpoint_raw-target_global_Time,setpoint_raw-target_global_header.seq,setpoint_raw-target_global_header.stamp.secs,setpoint_raw-target_global_latitude,setpoint_raw-target_global_longitude,setpoint_raw-target_global_altitude,setpoint_raw-target_global_yaw,state_Time,state_header.seq,state_connected,state_armed,state_guided,state_manual_input,state_system_status,RSSI_Time,RSSI_Quality,RSSI_Signal,CPU_Time,CPU_Percent,RAM_Time,Used_RAM_MB
0,1729787366.837866,570,0,33.63652997162861,72.99145951087016,1.2790000438690186,1729787354.7468896,12473,1729787353,0.074000001,0.01,0,-0.01,1729787354.740318,12453,1729787351,-1.660826774,0.5435304490300503,0.282,-0.01139383,-0.002113497,-0.962156315,0.06,0,0,1729787354.740717,12458,1729787351,-0.011236132,-0.002192984,-0.962066152,0.272575968,-0.000206046,-0.001562523,0.000808709,1729787354.743498,12468,1729787352,1000,1000,1000,1000,0,1729787354.7504082,12482,1729787354,0.02926128,0.026312299,238,0,545.9699707,0.012801773,1729787351,499.233497,72.991473,33.6365682,12,1729787366.819548,1307,1729787366,33.6365305,72.9914592,547.25,1.5707963705062866,1729787354.7444909,1961,1,0,0,1,5,1729787356.891291,0.6428571428571429,-65,1729787359.389214,3.9,1729787357.068898,6.5
1,1729787366.855916,664,0,33.63652987162862,72.99145951087019,1.2790000438690186,,,,,,,,,,,,,,,,,,,,,,,,,,,,,,,,,,,,,,,,,,,,,,,,,,,,,,,,,,,,,,,,,,,,,,,,
2,1729787366.9133751,1177,0,33.63652987162862,72.99145951087019,1.2790000438690186,,,,,,,,,,,,,,,,,,,,,,,,,,,,,,,,,,,,,,,,,,,,,,,,,,,,,,,,,,,,,,,,,,,,,,,,
3,1729787367,1374,0,33.63652938280989,72.99145988746162,1.2719999551773071,,,,,,,,,,,,,,,,,,,,,,,,,,,,,,,,,,,,,,,,,,,,,,,,,,,,,,,,,,,,,,,,,,,,,,,,
4,1729787367.3298028,1417,0,33.63652938280989,72.99145988746162,1.2719999551773071,,,,,,,,,,,,,,,,,,,,,,,,,,,,,,,,,,,,,,,,,,,,,,,,,,,,,,,,,,,,,,,,,,,,,,,,
5,1729787367.329857,2734,0,33.63652947596394,72.99145983,1.2660000324249268,,,,,,,,,,,,,,,,,,,,,,,,,,,,,,,,,,,,,,,,,,,,,,,,,,,,,,,,,,,,,,,,,,,,,,,,
6,1729787367.3298886,2908,0,33.63652937596394,72.99145993363783,1.2660000324249268,,,,,,,,,,,,,,,,,,,,,,,,,,,,,,,,,,,,,,,,,,,,,,,,,,,,,,,,,,,,,,,,,,,,,,,,
7,1729787368.5480998,3465,0,33.63652997,72.99145960354257,1.2599999904632568,1729787355,12474,1729787353,0.072999999,0.01,0,-0.01,1729787354.7404268,12454,1729787351,-1.660826774,0.5435304490300503,0.282,-0.011363201,-0.002131828,-0.962138934,0.06,0,0,1729787354.7408736,12459,1729787351,-0.011192743,-0.002235793,-0.9620531,0.272623469,0.000604896,-5.50E-05,0.000689618,1729787354.7440145,12469,1729787352,1000,1000,1000,1000,0,1729787354.7506702,12483,1729787354,0.030496821,0.027154913,238,0,545.9699707,0.013880448,1729787351,499.2334976401536,72.991473,33.6365683,12,,,,,,,,,,,,,,,,,,,,,
8,1729787368.5481417,3557,0,33.63652997,72.99145960354257,1.2599999904632568,,,,,,,,,,,,,,,,,,,,,,,,,,,,,,,,,,,,,,,,,,,,,,,,,,,,,,,,,,,,,,,,,,,,,,,,
9,1729787368.5482917,3695,0,33.63652997,72.99145960354257,1.2599999904632568,,,,,,,,,,,,,,,,,,,,,,,,,,,,,,,,,,,,,,,,,,,,,,,,,,,,,,,,,,,,,,,,,,,,,,,,
10,1729787368.548334,3914,0,33.63653043708246,72.99145940613796,1.253999948501587,,,,,,,,,,,,,,,,,,,,,,,,,,,,,,,,,,,,,,,,,,,,,,,,,,,,,,,,,,,,,,,,,,,,,,,,
11,1729787368.5483606,4148,0,33.63653043708246,72.99145940613796,1.253999948501587,,,,,,,,,,,,,,,,,,,,,,,,,,,,,,,,,,,,,,,,,,,,,,,,,,,,,,,,,,,,,,,,,,,,,,,,
12,1729787368.5484622,4386,0,33.63653043708246,72.99145940613796,1.253999948501587,,,,,,,,,,,,,,,,,,,,,,,,,,,,,,,,,,,,,,,,,,,,,,,,,,,,1729787366.913066,1308,1729787366,33.6365298,72.9914595,547.2399902,1.5707963705062866,,,,,,,,,,,,,,
13,1729787368.548521,4396,0,33.63653043708246,72.99145940613796,1.253999948501587,,,,,,,,,,,,,,,,,,,,,,,,,,,,,,,,,,,,,,,,,,,,,,,,,,,,,,,,,,,,,,,,,,,,,,,,
14,1729787368.548565,4421,0,33.63653043708246,72.99145940613796,1.253999948501587,1729787354.7474532,12475,1729787353,0.079999998,0.01,0,-0.01,1729787354.740515,12455,1729787351,-1.660826771,0.5435304478756273,0.277,-0.0113294,-0.00216773,-0.962119283,0.06,0,0,1729787354.7410204,12460,1729787351,-0.011172228,-0.002271053,-0.96204311,0.2726592697006258,-0.000177942,-0.000371819,0.000546186,1729787354.7444024,12470,1729787352,1000,1000,1000,1000,0,1729787354.7509997,12484,1729787354,0.030769052,0.026176231,238,0,545.9799805,0.016172171,1729787351,499.2334976401536,72.991473,33.6365683,12,,,,,,,,,,,,,,,,,,,,,
15,1729787368.5486343,4422,0,33.63653043708246,72.99145940613796,1.253999948501587,,,,,,,,,,,,,,,,,,,,,,,,,,,,,,,,,,,,,,,,,,,,,,,,,,,,,,,,,,,,,,,,,,,,,,,,
16,1729787368.5486612,4427,0,33.63653077137817,72.99145943994459,1.25,,,,,,,,,,,,,,,,,,,,,,,,,,,,,,,,,,,,,,,,,,,,,,,,,,,,,,,,,,,,,,,,,,,,,,,,
17,1729787368.549011,4453,0,33.63653077137817,72.99145943994459,1.25,,,,,,,,,,,,,,,,,,,,,,,,,,,,,,,,,,,,,,,,,,,,,,,,,,,,,,,,,,,,,,,,,,,,,,,,
18,1729787368.5490508,4464,0,33.63653077137817,72.99145943994459,1.25,,,,,,,,,,,,,,,,,,,,,,,,,,,,,,,,,,,,,,,,,,,,,,,,,,,,,,,,,,,,,,,,,,,,,,,,
19,1729787368.5491638,4471,0,33.63653077137817,72.99145943994459,1.25,,,,,,,,,,,,,,,,,,,,,,,,,,,,,,,,,,,,,,,,,,,,,,,,,,,,,,,,,,,,,,,,,,,,,,,,
20,1729787368.5492203,5073,0,33.63653077137817,72.99145943994459,1.25,,,,,,,,,,,,,,,,,,,,,,,,,,,,,,,,,,,,,,,,,,,,,,,,,,,,,,,,,,,,,,,,,,,,,,,,
21,1729787368.5492551,5091,0,33.63653077137817,72.99145943994459,1.25,1729787354.7486715,12476,1729787353,0.078000002,0.01,0,-0.01,1729787354.740617,12456,1729787351,-1.660826769,0.5546229034997419,0.272,-0.011288006,-0.002172174,-0.962098689,0.06,0,0,1729787354.7412157,12461,1729787351,-0.01115253,-0.002272598,-0.962032372,0.2726979477882224,-0.000168379,0.000466647,3.5800039768218422e-06,1729787354.7462685,12471,1729787353,1000,1000,1000,1000,0,1729787354.7513683,12485,1729787354,0.031369276,0.02539121,238,0,545.9799805,0.018420577,1729787351,499.2234976401536,72.991473,33.6365683,12,,,,,,,,,,,,,,,,,,,,,
22,1729787368.5492802,5207,0,33.63653077137817,72.99145943994459,1.25,,,,,,,,,,,,,,,,,,,,,,,,,,,,,,,,,,,,,,,,,,,,,,,,,,,,,,,,,,,,,,,,,,,,,,,,
23,1729787368.5493915,5208,0,33.63653077137817,72.99145943994459,1.25,,,,,,,,,,,,,,,,,,,,,,,,,,,,,,,,,,,,,,,,,,,,,,,,,,,,,,,,,,,,,,,,,,,,,,,,
24,1729787368.5494416,5239,0,33.63653080186031,72.99145942510398,1.25,,,,,,,,,,,,,,,,,,,,,,,,,,,,,,,,,,,,,,,,,,,,,,,,,,,,1729787367.0207531,1309,1729787367,33.6365293,72.9914598,547.2399902,1.5707963705062866,,,,,,,,,,,,,,
25,1729787368.5494726,5240,0,33.63653080186031,72.99145942510398,1.25,,,,,,,,,,,,,,,,,,,,,,,,,,,,,,,,,,,,,,,,,,,,,,,,,,,,,,,,,,,,,,,,,,,,,,,,
26,1729787368.549497,5604,0,33.63653080186031,72.99145942510398,1.25,,,,,,,,,,,,,,,,,,,,,,,,,,,,,,,,,,,,,,,,,,,,,,,,,,,,,,,,,,,,,,,,,,,,,,,,
27,1729787368.5497465,5749,0,33.63653080186031,72.99145942510398,1.25,,,,,,,,,,,,,,,,,,,,,,,,,,,,,,,,,,,,,,,,,,,,,,,,,,,,,,,,,,,,,,,,,,,,,,,,
28,1729787368.549937,5750,0,33.63653080186031,72.99145942510398,1.25,1729787355,12477,1729787353,0.075999998,0.01,0,-0.01,1729787354.7407858,12457,1729787351,-1.660826769,0.5546229034997419,0.27,-0.011263955,-0.00217729,-0.962080482,0.06,0,0,1729787354.7413826,12462,1729787352,-0.011147291,-0.002260927,-0.962021788,0.2727355965125321,0.000149792,-0.000316385,0.001446615,1729787354.7466376,12472,1729787353,1000,1000,1000,1000,0,1729787354.7516327,12486,1729787354,0.031056721,0.02445171,238,0,545.9899902,0.019147681,1729787351,499.22349825270527,72.991473,33.6365684,12,,,,,,,,,,,,,,,,,,,,,
29,1729787368.549969,5804,0,33.63653080186031,72.99145942510398,1.25,,,,,,,,,,,,,,,,,,,,,,,,,,,,,,,,,,,,,,,,,,,,,,,,,,,,,,,,,,,,,,,,,,,,,,,,
30,1729787368.550063,5813,0,33.63653080186031,72.99145942510398,1.25,,,,,,,,,,,,,,,,,,,,,,,,,,,,,,,,,,,,,,,,,,,,,,,,,,,,,,,,,,,,,,,,,,,,,,,,
31,1729787368.5500932,5865,0,33.63653080186031,72.99145942510398,1.25,,,,,,,,,,,,,,,,,,,,,,,,,,,,,,,,,,,,,,,,,,,,,,,,,,,,,,,,,,,,,,,,,,,,,,,,
32,1729787368.5501163,5964,0,33.63653080186031,72.99145942510398,1.25,,,,,,,,,,,,,,,,,,,,,,,,,,,,,,,,,,,,,,,,,,,,,,,,,,,,,,,,,,,,,,,,,,,,,,,,
33,1729787368.550313,6269,0,33.63653079314958,72.99145943,1.25,,,,,,,,,,,,,,,,,,,,,,,,,,,,,,,,,,,,,,,,,,,,,,,,,,,,,,,,,,,,,,,,,,,,,,,,
34,1729787368.5504525,6437,0,33.63653079314958,72.99145943,1.25,,,,,,,,,,,,,,,,,,,,,,,,,,,,,,,,,,,,,,,,,,,,,,,,,,,,,,,,,,,,,,,,,,,,,,,,
35,1729787368.5504825,6751,0,33.63653079314958,72.99145943,1.25,1729787354.7508626,12478,1729787353,0.078000002,0.01,0,-0.01,1729787354.7409484,12458,1729787351,-1.67010513,0.5546229047004779,0.271,-0.011236132,-0.002192984,-0.962066152,0.05,0,0,1729787354.7416475,12463,1729787352,-0.011127069,-0.002239882,-0.962001574,0.2728078857922022,0.000599045,-0.000782833,0.000519775,1729787354.7469156,12473,1729787353,1000,1000,1000,1000,0,1729787354.752329,12487,1729787354,0.031570151,0.024882227,238,0,545.9899902,0.019430626,1729787351,499.22349825270527,72.991473,33.6365684,12,,,,,,,,,,,,,,,,,,,,,
36,1729787368.550594,6775,0,33.63653079314958,72.99145943,1.25,,,,,,,,,,,,,,,,,,,,,,,,,,,,,,,,,,,,,,,,,,,,,,,,,,,,1729787367.113453,1310,1729787367,33.6365293,72.9914598,547.2399902,1.5707963705062866,,,,,,,,,,,,,1729787358.070384,6.5
37,1729787368.5507343,6793,0,33.63653064960126,72.99145949975406,1.25,,,,,,,,,,,,,,,,,,,,,,,,,,,,,,,,,,,,,,,,,,,,,,,,,,,,,,,,,,,,,,,,,,,,,,,,
38,1729787368.5507607,7029,0,33.63653064960126,72.99145949975406,1.25,,,,,,,,,,,,,,,,,,,,,,,,,,,,,,,,,,,,,,,,,,,,,,,,,,,,,,,,,,,,,,,,,,,,,,,,
39,1729787368.5507815,7034,0,33.63653064960126,72.99145949975406,1.25,,,,,,,,,,,,,,,,,,,,,,,,,,,,,,,,,,,,,,,,,,,,,,,,,,,,,,,,,,,,,,,,,,,,,,,,
40,1729787368.5510223,7076,0,33.63653064960126,72.99145949975406,1.25,,,,,,,,,,,,,,,,,,,,,,,,,,,,,,,,,,,,,,,,,,,,,,,,,,,,,,,,,,,,,,,,,,,,,,,,
41,1729787368.551051,7084,0,33.63653064960126,72.99145949975406,1.25,,,,,,,,,,,,,,,,,,,,,,,,,,,,,,,,,,,,,,,,,,,,,,,,,,,,,,,,,,,,,,,,,,,,,,,,
42,1729787368.551186,7090,0,33.63653064960126,72.99145949975406,1.25,1729787354.7512872,12479,1729787353,0.079999998,0.01,0,-0.01,1729787354.741068,12459,1729787351,-1.670105129,0.5657153600378968,0.275,-0.011192743,-0.002235793,-0.9620531,0.05,0,0,1729787354.7418282,12464,1729787352,-0.011090144,-0.002212023,-0.961986557,0.2728625645692362,0.00018022,0.000129657,0.000297062,1729787354.747244,12474,1729787353,1000,1000,1000,1000,0,1729787354.754542,12488,1729787354,0.031304188,0.024455639,238,0,546,0.019541586,1729787351,499.2234978557182,72.9914729,33.6365684,12,,,,,,,,,,,,,,,,,,,,,
43,1729787368.5513213,7098,0,33.63653064960126,72.99145949975406,1.25,,,,,,,,,,,,,,,,,,,,,,,,,,,,,,,,,,,,,,,,,,,,,,,,,,,,,,,,,,,,,,,,,,,,,,,,
44,1729787368.5514617,7130,0,33.63653064960126,72.99145949975406,1.25,,,,,,,,,,,,,,,,,,,,,,,,,,,,,,,,,,,,,,,,,,,,,,,,,,,,,,,,,,,,,,,,,,,,,,,,
45,1729787368.5515008,7158,0,33.63653064960126,72.99145949975406,1.25,,,,,,,,,,,,,,,,,,,,,,,,,,,,,,,,,,,,,,,,,,,,,,,,,,,,,,,,,,,,,,,,,,,,,,,,
46,1729787368.5516286,7203,0,33.63653064960126,72.99145949975406,1.25,,,,,,,,,,,,,,,,,,,,,,,,,,,,,,,,,,,,,,,,,,,,,,,,,,,,,,,,,,,,,,,,,,,,,,,,
47,1729787368.5516562,7286,0,33.63653064960126,72.99145949975406,1.25,,,,,,,,,,,,,,,,,,,,,,,,,,,,,,,,,,,,,,,,,,,,,,,,,,,,,,,,,,,,,,,,,,,,,,,,
48,1729787368.551763,7409,0,33.63653064960126,72.99145949975406,1.25,,,,,,,,,,,,,,,,,,,,,,,,,,,,,,,,,,,,,,,,,,,,,,,,,,,,1729787367.217739,1311,1729787367,33.6365293,72.9914598,547.2399902,1.5707963705062866,,,,,,,,,,,,,,
49,1729787369,7415,0,33.63653064960126,72.99145949975406,1.25,1729787354.7522745,12480,1729787353,0.082999997,0.01,0,-0.01,1729787354.741266,12460,1729787351,-1.679383494,0.5657153630552686,0.281,-0.011172228,-0.002271053,-0.96204311,0.05,0,0,1729787354.742251,12465,1729787352,-0.011070386,-0.002202655,-0.961963601,0.2729443633855324,-0.001369681,-9.43E-05,0.001420368,1729787354.7474785,12475,1729787353,1000,1000,1000,1000,0,1729787354.8037748,12489,1729787354,0.031909164,0.025270509,238,0,546,0.01948322,1729787351,499.2234984682699,72.9914729,33.6365685,12,,,,,,,,,,,,,,,,,,,,,
50,1729787368.5518136,7432,0,33.63653064960126,72.99145949975406,1.25,,,,,,,,,,,,,,,,,,,,,,,,,,,,,,,,,,,,,,,,,,,,,,,,,,,,,,,,,,,,,,,,,,,,,,,,
51,1729787368.5519557,7443,0,33.63653064960126,72.99145949975406,1.25,,,,,,,,,,,,,,,,,,,,,,,,,,,,,,,,,,,,,,,,,,,,,,,,,,,,,,,,,,,,,,,,,,,,,,,,
52,1729787368.5520935,7472,0,33.63653064960126,72.99145949975406,1.25,,,,,,,,,,,,,,,,,,,,,,,,,,,,,,,,,,,,,,,,,,,,,,,,,,,,,,,,,,,,,,,,,,,,,,,,
53,1729787368.5522382,7484,0,33.63653064960126,72.99145949975406,1.25,,,,,,,,,,,,,,,,,,,,,,,,,,,,,,,,,,,,,,,,,,,,,,,,,,,,,,,,,,,,,,,,,,,,,,,,
54,1729787368.5522692,8085,0,33.63653064960126,72.99145949975406,1.25,,,,,,,,,,,,,,,,,,,,,,,,,,,,,,,,,,,,,,,,,,,,,,,,,,,,,,,,,,,,,,,,,,,,,,,,
55,1729787368.5524108,8289,0,33.63653049339106,72.99145957770097,1.25,,,,,,,,,,,,,,,,,,,,,,,,,,,,,,,,,,,,,,,,,,,,,,,,,,,,,,,,,,,,,,,,,,,,,,,,
56,1729787368.552539,8893,0,33.63653049339106,72.99145967770096,1.25,1729787354.7526114,12481,1729787353,0.079999998,0.01,0,-0.01,1729787354.7414515,12461,1729787351,-1.679383494,0.5657153630552686,0.286,-0.01115253,-0.002272598,-0.962032372,0.05,0,0,1729787354.742764,12466,1729787352,-0.011071694,-0.002239412,-0.961947884,0.2729993992441855,-0.000706436,-0.001316121,0.00048126,1729787354.747776,12476,1729787353,1000,1000,1000,1000,0,1729787354.898609,12490,1729787354,0.031845476,0.025483247,238,0,546,0.01909812,1729787351,499.2334980712829,72.9914728,33.6365685,12,,,,,,,,,,,,,,,,,,,,,
57,1729787368.5525663,9104,0,33.63653049339106,72.99145967770096,1.25,,,,,,,,,,,,,,,,,,,,,,,,,,,,,,,,,,,,,,,,,,,,,,,,,,,,,,,,,,,,,,,,,,,,,,,,
58,1729787368.552603,9887,0,33.63653049339106,72.99145967770096,1.25,,,,,,,,,,,,,,,,,,,,,,,,,,,,,,,,,,,,,,,,,,,,,,,,,,,,,,,,,,,,,,,,,,,,,,,,
59,1729787368.9835205,11261,0,33.63653029870676,72.99145977678987,1.25,,,,,,,,,,,,,,,,,,,,,,,,,,,,,,,,,,,,,,,,,,,,,,,,,,,,,,,,,,,,,,,,,,,,,,,,
60,1729787368.9836805,11262,0,33.63653027711532,72.99145978791303,1.25,,,,,,,,,,,,,,,,,,,,,,,,,,,,,,,,,,,,,,,,,,,,,,,,,,,,1729787367.3116157,1312,1729787367,33.6365293,72.9914598,547.2399902,1.5707963705062866,,,,,,,,,,,,,,
61,1729787368.9838676,11306,0,33.63653027711532,72.99145978791303,1.25,,,,,,,,,,,,,,,,,,,,,,,,,,,,,,,,,,,,,,,,,,,,,,,,,,,,,,,,,,,,,,,,,,,,,,,,
62,1729787368.983904,11479,0,33.63653027711532,72.99145978791303,1.25,,,,,,,,,,,,,,,,,,,,,,,,,,,,,,,,,,,,,,,,,,,,,,,,,,,,,,,,,,,,,,,,,,,,,,,,
63,1729787368.984018,11481,0,33.63653031,72.99145977012684,1.25,1729787354.7547483,12482,1729787354,0.079999998,0.01,0,-0.01,1729787354.7416234,12462,1729787352,-1.679383496,0.5657153631853322,0.29,-0.011147291,-0.002260927,-0.962021788,0.04,0,0,1729787354.743003,12467,1729787352,-0.011082007,-0.002272822,-0.961931246,0.2730573226094597,-0.002334567,1.4839693903923031e-05,-2.26E-05,1729787354.748254,12477,1729787353,1000,1000,1000,1000,0,1729787355.0034132,12491,1729787355,0.032081112,0.026038332,238,0,546,0.018740412,1729787351,499.2334980712829,72.9914728,33.6365685,12,,,,,,,,1729787354.7496476,1962,1,0,0,1,5,,,,,,,
64,1729787368.984045,11528,0,33.63653031,72.99145977012684,1.25,,,,,,,,,,,,,,,,,,,,,,,,,,,,,,,,,,,,,,,,,,,,,,,,,,,,,,,,,,,,,,,,,,,,,,,,
65,1729787368.9841857,12301,0,33.63653031,72.99145977012684,1.25,,,,,,,,,,,,,,,,,,,,,,,,,,,,,,,,,,,,,,,,,,,,,,,,,,,,,,,,,,,,,,,,,,,,,,,,
66,1729787368.9843123,12302,0,33.63653031,72.99145977012684,1.25,,,,,,,,,,,,,,,,,,,,,,,,,,,,,,,,,,,,,,,,,,,,,,,,,,,,,,,,,,,,,,,,,,,,,,,,
67,1729787368.9843404,12303,0,33.63653030302602,72.99145967456795,1.25,,,,,,,,,,,,,,,,,,,,,,,,,,,,,,,,,,,,,,,,,,,,,,,,,,,,,,,,,,,,,,,,,,,,,,,,
68,1729787368.9844558,13105,0,33.63653030302602,72.99145967456795,1.25,,,,,,,,,,,,,,,,,,,,,,,,,,,,,,,,,,,,,,,,,,,,,,,,,,,,,,,,,,,,,,,,,,,,,,,,
69,1729787368.9845984,13617,0,33.63653042030627,72.99145977,1.25,,,,,,,,,,,,,,,,,,,,,,,,,,,,,,,,,,,,,,,,,,,,,,,,,,,,,,,,,,,,,,,,,,,,,,,,
70,1729787369.5637896,13926,0,33.63653042030627,72.99145977,1.25,1729787354.7556243,12483,1729787354,0.079999998,0.01,0,-0.01,1729787354.741887,12463,1729787352,-1.679383496,0.5657153631853322,0.295,-0.011127069,-0.002239882,-0.962001574,0.04,0,0,1729787354.7436194,12468,1729787352,-0.011073779,-0.002298563,-0.961919281,0.2730995893420549,0.001113128,4.316866397857669e-05,0.000270415,1729787354.7487574,12478,1729787353,1000,1000,1000,1000,0,1729787355.1014931,12492,1729787355,0.032466926,0.026705576,238,0,546,0.018463843,1729787352,499.2434980712828,72.9914728,33.6365685,12,,,,,,,,,,,,,,,,,,,,,
71,1729787369.563833,15220,0,33.63653047650268,72.99145954,1.25,,,,,,,,,,,,,,,,,,,,,,,,,,,,,,,,,,,,,,,,,,,,,,,,,,,,,,,,,,,,,,,,,,,,,,,,
72,1729787369.563859,15237,0,33.636530550071974,72.99145949956193,1.25,,,,,,,,,,,,,,,,,,,,,,,,,,,,,,,,,,,,,,,,,,,,,,,,,,,,1729787367.4180214,1313,1729787367,33.6365299,72.9914596,547.2299805,1.5707963705062866,,,,,,,,,,,,,1729787359.072231,6.5
73,1729787369.563901,15294,0,33.636530550071974,72.99145949956193,1.25,,,,,,,,,,,,,,,,,,,,,,,,,,,,,,,,,,,,,,,,,,,,,,,,,,,,,,,,,,,,,,,,,,,,,,,,
74,1729787369.5640578,15506,0,33.636530550071974,72.99145949956193,1.25,,,,,,,,,,,,,,,,,,,,,,,,,,,,,,,,,,,,,,,,,,,,,,,,,,,,,,,,,,,,,,,,,,,,,,,,
75,1729787369.564095,16329,0,33.636530667106165,72.99145934074576,1.25,,,,,,,,,,,,,,,,,,,,,,,,,,,,,,,,,,,,,,,,,,,,,,,,,,,,,,,,,,,,,,,,,,,,,,,,
76,1729787369.5641203,16776,0,33.63653080176155,72.99145907403387,1.25,,,,,,,,,,,,,,,,,,,,,,,,,,,,,,,,,,,,,,,,,,,,,,,,,,,,,,,,,,,,,,,,,,,,,,,,
77,1729787369.5641477,17192,0,33.63653080176155,72.99145907403387,1.25,1729787354.7557003,12484,1729787354,0.078000002,0.01,0,-0.01,1729787354.7422388,12464,1729787352,-1.68866186,0.5657153663536059,0.3,-0.011090144,-0.002212023,-0.961986557,0.04,0,0,1729787354.7438004,12469,1729787352,-0.011076714,-0.002345557,-0.961904752,0.2731502395431041,-8.73E-05,-0.000386456,0.000391922,1729787354.7523491,12479,1729787353,1000,1000,1000,1000,0,1729787355.2037115,12493,1729787355,0.033850465,0.028636353,238,0,546,0.018050289,1729787352,499.2434980712828,72.9914728,33.6365685,12,,,,,,,,,,,,,,,,,,,,,
78,1729787369.5644095,17195,0,33.63653081492869,72.99145891875739,1.25,,,,,,,,,,,,,,,,,,,,,,,,,,,,,,,,,,,,,,,,,,,,,,,,,,,,,,,,,,,,,,,,,,,,,,,,
79,1729787369.5644488,17884,0,33.63653081492869,72.99145891875739,1.25,,,,,,,,,,,,,,,,,,,,,,,,,,,,,,,,,,,,,,,,,,,,,,,,,,,,,,,,,,,,,,,,,,,,,,,,
80,1729787369.5644736,18058,0,33.63653081492869,72.99145891875739,1.25,,,,,,,,,,,,,,,,,,,,,,,,,,,,,,,,,,,,,,,,,,,,,,,,,,,,,,,,,,,,,,,,,,,,,,,,
81,1729787369.5644946,18437,0,33.636530884673384,72.99145879,1.25,,,,,,,,,,,,,,,,,,,,,,,,,,,,,,,,,,,,,,,,,,,,,,,,,,,,,,,,,,,,,,,,,,,,,,,,
82,1729787369.5645778,18823,0,33.636530884673384,72.99145879,1.25,,,,,,,,,,,,,,,,,,,,,,,,,,,,,,,,,,,,,,,,,,,,,,,,,,,,,,,,,,,,,,,,,,,,,,,,
83,1729787369.5646725,19384,0,33.63653088903502,72.99145878294881,1.25,,,,,,,,,,,,,,,,,,,,,,,,,,,,,,,,,,,,,,,,,,,,,,,,,,,,,,,,,,,,,,,,,,,,,,,,
84,1729787369.5646954,19386,0,33.63653088903502,72.99145878294881,1.25,1729787354.7557983,12485,1729787354,0.079000004,0.01,0,-0.01,1729787354.7429066,12465,1729787352,-1.68866186,0.5657153663536059,0.306,-0.011070386,-0.002202655,-0.961963601,0.04,0,-0.01,1729787354.7462304,12470,1729787352,-0.011077105,-0.002369268,-0.961889647,0.2732032050198729,-4.98E-05,-0.000908392,0.000747392,1729787354.7545297,12480,1729787353,1000,1000,1000,1000,0,1729787355.2996516,12494,1729787355,0.0343601,0.029250111,238,0,546,0.018029066,1729787352,499.2534976742958,72.9914727,33.6365685,12,1729787367.511588,1314,1729787367,33.6365299,72.9914596,547.2299805,1.5707963705062866,,,,,,,,,,,,,,
85,1729787369.5648222,19440,0,33.63653088903502,72.99145878294881,1.25,,,,,,,,,,,,,,,,,,,,,,,,,,,,,,,,,,,,,,,,,,,,,,,,,,,,,,,,,,,,,,,,,,,,,,,,
86,1729787369.564954,19584,0,33.63653088903502,72.99145878294881,1.25,,,,,,,,,,,,,,,,,,,,,,,,,,,,,,,,,,,,,,,,,,,,,,,,,,,,,,,,,,,,,,,,,,,,,,,,
87,1729787373.2746692,20241,0,33.63653098903502,72.99145868294879,1.25,,,,,,,,,,,,,,,,,,,,,,,,,,,,,,,,,,,,,,,,,,,,,,,,,,,,,,,,,,,,,,,,,,,,,,,,
88,1729787373.274835,20538,0,33.63653074,72.99145880620455,1.25,,,,,,,,,,,,,,,,,,,,,,,,,,,,,,,,,,,,,,,,,,,,,,,,,,,,,,,,,,,,,,,,,,,,,,,,
89,1729787373.2749796,20539,0,33.63653074,72.99145880620455,1.25,,,,,,,,,,,,,,,,,,,,,,,,,,,,,,,,,,,,,,,,,,,,,,,,,,,,,,,,,,,,,,,,,,,,,,,,
90,1729787373.2750194,22182,0,33.63653049813112,72.99145882591493,1.253999948501587,,,,,,,,,,,,,,,,,,,,,,,,,,,,,,,,,,,,,,,,,,,,,,,,,,,,,,,,,,,,,,,,,,,,,,,,
91,1729787373.2751577,22864,0,33.63653049813112,72.99145882591493,1.253999948501587,1729787354.7558866,12486,1729787354,0.075999998,0.01,0,-0.01,1729787354.743718,12466,1729787352,-1.688661863,0.5657153669769865,0.312,-0.011071694,-0.002239412,-0.961947884,0.04,0,-0.01,1729787354.7469249,12471,1729787352,-0.011075493,-0.002382116,-0.961870902,0.2732691487130124,6.244517862796783e-05,4.233419895172122e-05,0.00019848,1729787354.7557263,12481,1729787354,1000,1000,1000,1000,0,1729787355.4066706,12495,1729787355,0.03557701,0.030429741,238,0,546,0.018432433,1729787352,499.2534976742958,72.9914727,33.6365685,12,,,,,,,,,,,,,,,,,,,,,
92,1729787373.275294,22883,0,33.63653039006921,72.99145878123639,1.253999948501587,,,,,,,,,,,,,,,,,,,,,,,,,,,,,,,,,,,,,,,,,,,,,,,,,,,,,,,,,,,,,,,,,,,,,,,,
93,1729787373.2753198,23277,0,33.63653039006921,72.99145878123639,1.253999948501587,,,,,,,,,,,,,,,,,,,,,,,,,,,,,,,,,,,,,,,,,,,,,,,,,,,,,,,,,,,,,,,,,,,,,,,,
94,1729787373.2754366,23304,0,33.63653039006921,72.99145878123639,1.253999948501587,,,,,,,,,,,,,,,,,,,,,,,,,,,,,,,,,,,,,,,,,,,,,,,,,,,,,,,,,,,,,,,,,,,,,,,,
95,1729787373.275567,23427,0,33.63653039006921,72.99145878123639,1.253999948501587,,,,,,,,,,,,,,,,,,,,,,,,,,,,,,,,,,,,,,,,,,,,,,,,,,,,,,,,,,,,,,,,,,,,,,,,
96,1729787373.2755923,23484,0,33.63653039006921,72.99145878123639,1.253999948501587,,,,,,,,,,,,,,,,,,,,,,,,,,,,,,,,,,,,,,,,,,,,,,,,,,,,1729787367.613757,1315,1729787367,33.6365299,72.9914596,547.2299805,1.5707963705062866,,,,,,,,,,,,,,
97,1729787373.2757046,23487,0,33.63653039006921,72.99145878123639,1.253999948501587,,,,,,,,,,,,,,,,,,,,,,,,,,,,,,,,,,,,,,,,,,,,,,,,,,,,,,,,,,,,,,,,,,,,,,,,
98,1729787373.2758355,23828,0,33.63653035121627,72.99145870129067,1.253000020980835,1729787354.7559786,12487,1729787354,0.075000003,0.01,0,-0.01,1729787354.7440867,12467,1729787352,-1.688661861,0.5768078226388269,0.314,-0.011082007,-0.002272822,-0.961931246,0.04,0,-0.01,1729787354.7472167,12472,1729787353,-0.011063467,-0.002392688,-0.96184591,0.2733574947879608,0.000497887,-0.000483612,0.000854935,1729787354.7558303,12482,1729787354,1000,1000,1000,1000,0,1729787355.4996195,12496,1729787355,0.036934003,0.032090843,238,0,546,0.018283824,1729787352,499.26349767429576,72.9914727,33.6365685,12,,,,,,,,,,,,,,,,,,,,,
99,1729787373.2758636,23947,0,33.63653035121627,72.99145870129067,1.253000020980835,,,,,,,,,,,,,,,,,,,,,,,,,,,,,,,,,,,,,,,,,,,,,,,,,,,,,,,,,,,,,,,,,,,,,,,,
100,1729787373.2759712,24532,0,33.63653035121627,72.99145860129067,1.25,,,,,,,,,,,,,,,,,,,,,,,,,,,,,,,,,,,,,,,,,,,,,,,,,,,,,,,,,,,,,,,,,,,,,,,,
101,1729787373.2761736,24541,0,33.63653035984799,72.99145859682783,1.25,,,,,,,,,,,,,,,,,,,,,,,,,,,,,,,,,,,,,,,,,,,,,,,,,,,,,,,,,,,,,,,,,,,,,,,,
102,1729787373.2763078,24543,0,33.63653035984799,72.99145859682783,1.25,,,,,,,,,,,,,,,,,,,,,,,,,,,,,,,,,,,,,,,,,,,,,,,,,,,,,,,,,,,,,,,,,,,,,,,,
103,1729787373.276333,24546,0,33.63653035984799,72.99145859682783,1.25,,,,,,,,,,,,,,,,,,,,,,,,,,,,,,,,,,,,,,,,,,,,,,,,,,,,,,,,,,,,,,,,,,,,,,,,
104,1729787373.2764523,24552,0,33.63653035984799,72.99145859682783,1.25,,,,,,,,,,,,,,,,,,,,,,,,,,,,,,,,,,,,,,,,,,,,,,,,,,,,,,,,,,,,,,,,,,,,,1729787362.394739,6.8,,
105,1729787373.276616,24553,0,33.63653035984799,72.99145859682783,1.25,1729787354.7560973,12488,1729787354,0.078000002,0.01,0,-0.01,1729787354.746517,12468,1729787352,-1.688661861,0.5768078226388269,0.313,-0.011073779,-0.002298563,-0.961919281,0.04,0,-0.01,1729787355,12473,1729787353,-0.011051169,-0.002376329,-0.961824736,0.2734326269486001,-0.00084565,0.000269905,-0.000761208,1729787355,12483,1729787354,1000,1000,1000,1000,0,1729787355.6059823,12497,1729787355,0.039791916,0.035134558,238,0,546.0100098,0.018680437,1729787352,499.2634982868474,72.9914727,33.6365686,12,,,,,,,,,,,,,,,,,,,,,
106,1729787373.2766397,24554,0,33.63653035984799,72.99145859682783,1.25,,,,,,,,,,,,,,,,,,,,,,,,,,,,,,,,,,,,,,,,,,,,,,,,,,,,,,,,,,,,,,,,,,,,,,,,
107,1729787373.276781,24555,0,33.63653035984799,72.99145859682783,1.25,,,,,,,,,,,,,,,,,,,,,,,,,,,,,,,,,,,,,,,,,,,,,,,,,,,,,,,,,,,,,,,,,,,,,,,,
108,1729787373.276914,24556,0,33.63653035984799,72.99145859682783,1.25,,,,,,,,,,,,,,,,,,,,,,,,,,,,,,,,,,,,,,,,,,,,,,,,,,,,1729787367.7103982,1316,1729787367,33.6365299,72.9914596,547.2299805,1.5707963705062866,,,,,,,,,,,,,1729787360.073748,6.6
109,1729787373.2769396,24557,0,33.63653035984799,72.99145859682783,1.25,,,,,,,,,,,,,,,,,,,,,,,,,,,,,,,,,,,,,,,,,,,,,,,,,,,,,,,,,,,,,,,,,,,,,,,,
110,1729787373.277057,24558,0,33.63653035984799,72.99145859682783,1.25,,,,,,,,,,,,,,,,,,,,,,,,,,,,,,,,,,,,,,,,,,,,,,,,,,,,,,,,,,,,,,,,,,,,,,,,
111,1729787373.277193,24559,0,33.63653035984799,72.99145859682783,1.25,,,,,,,,,,,,,,,,,,,,,,,,,,,,,,,,,,,,,,,,,,,,,,,,,,,,,,,,,,,,,,,,,,,,,,,,
112,1729787373.2773252,24560,0,33.63653035984799,72.99145859682783,1.25,1729787354.7563348,12489,1729787354,0.074000001,0.01,0,-0.01,1729787354.7472756,12469,1729787352,-1.688661859,0.5879002776262767,0.311,-0.011076714,-0.002345557,-0.961904752,0.04,0,-0.01,1729787354.7477283,12474,1729787353,-0.01099649,-0.00240296,-0.961801423,0.2735165901297541,3.561563789844513e-05,-0.000204416,-0.000334346,1729787354.7560637,12484,1729787354,1000,1000,1000,1000,0,1729787355.700904,12498,1729787355,0.042538494,0.037552286,238,0,546.0199584960938,0.019983716,1729787352,499.2634982868474,72.9914727,33.6365686,12,,,,,,,,,,,,,,,,,,,,,
113,1729787373.2774212,24561,0,33.63653035984799,72.99145859682783,1.25,,,,,,,,,,,,,,,,,,,,,,,,,,,,,,,,,,,,,,,,,,,,,,,,,,,,,,,,,,,,,,,,,,,,,,,,
114,1729787373.277553,24562,0,33.63653035984799,72.99145859682783,1.25,,,,,,,,,,,,,,,,,,,,,,,,,,,,,,,,,,,,,,,,,,,,,,,,,,,,,,,,,,,,,,,,,,,,,,,,
115,1729787373.2776814,24563,0,33.63653035984799,72.99145859682783,1.25,,,,,,,,,,,,,,,,,,,,,,,,,,,,,,,,,,,,,,,,,,,,,,,,,,,,,,,,,,,,,,,,,,,,,,,,
116,1729787373.277705,24564,0,33.63653035984799,72.99145859682783,1.25,,,,,,,,,,,,,,,,,,,,,,,,,,,,,,,,,,,,,,,,,,,,,,,,,,,,,,,,,,,,,,,,,,,,,,,,
117,1729787373.277852,24565,0,33.63653035984799,72.99145859682783,1.25,,,,,,,,,,,,,,,,,,,,,,,,,,,,,,,,,,,,,,,,,,,,,,,,,,,,,,,,,,,,,,,,,,,,,,,,
118,1729787373.2779822,24566,0,33.63653035984799,72.99145859682783,1.25,,,,,,,,,,,,,,,,,,,,,,,,,,,,,,,,,,,,,,,,,,,,,,,,,,,,,,,,,,,,,,,,,,,,,,,,
119,1729787373.2780068,24567,0,33.63653035984799,72.99145859682783,1.25,1729787354.8178074,12490,1729787354,0.078000002,0.01,0,-0.01,1729787354.7475164,12470,1729787352,-1.688661859,0.5879002776262767,0.311,-0.011077105,-0.002369268,-0.961889647,0.04,0,-0.01,1729787354.7480774,12475,1729787353,-0.01098301,-0.002425929,-0.961778999,0.2735957706608427,-0.000510648,-0.001021849,-0.000204558,1729787354.7561164,12485,1729787354,1000,1000,1000,1000,0,1729787355.8041306,12499,1729787355,0.045416672,0.039473724,238,0,546.0299682617188,0.022461055,1729787352,499.2634988993992,72.9914727,33.6365687,12,,,,,,,,,,,,,,,,,,,,,
120,1729787373.278127,24568,0,33.63653035984799,72.99145859682783,1.25,,,,,,,,,,,,,,,,,,,,,,,,,,,,,,,,,,,,,,,,,,,,,,,,,,,,1729787367.8147469,1317,1729787367,33.6365299,72.9914596,547.2299805,1.5707963705062866,,,,,,,,,,,,,,
121,1729787373.2783248,24569,0,33.63653035984799,72.99145859682783,1.25,,,,,,,,,,,,,,,,,,,,,,,,,,,,,,,,,,,,,,,,,,,,,,,,,,,,,,,,,,,,,,,,,,,,,,,,
122,1729787373.2783597,24570,0,33.63653035984799,72.99145859682783,1.25,,,,,,,,,,,,,,,,,,,,,,,,,,,,,,,,,,,,,,,,,,,,,,,,,,,,,,,,,,,,,,,,,,,,,,,,
123,1729787373.2784674,24571,0,33.63653035984799,72.99145859682783,1.25,,,,,,,,,,,,,,,,,,,,,,,,,,,,,,,,,,,,,,,,,,,,,,,,,,,,,,,,,,,,,,,,,,,,,,,,
124,1729787373.2785912,24572,0,33.63653035984799,72.99145859682783,1.25,,,,,,,,,,,,,,,,,,,,,,,,,,,,,,,,,,,,,,,,,,,,,,,,,,,,,,,,,,,,,,,,,,,,,,,,
125,1729787373.278614,24573,0,33.63653035984799,72.99145859682783,1.25,,,,,,,,,,,,,,,,,,,,,,,,,,,,,,,,,,,,,,,,,,,,,,,,,,,,,,,,,,,,,,,,,,,,,,,,
126,1729787373.2787335,24574,0,33.63653035984799,72.99145859682783,1.25,1729787354.9097364,12491,1729787354,0.077,0.01,0,-0.01,1729787354.747795,12471,1729787352,-1.688661857,0.5989927326137265,0.311,-0.011075493,-0.002382116,-0.961870902,0.04,0,-0.01,1729787354.7482245,12476,1729787353,-0.010952261,-0.002414483,-0.961763306,0.2736522654883937,-0.000934282,-0.000892049,0.000377188,1729787354.7561605,12486,1729787354,1000,1000,1000,1000,0,1729787355.9004092,12500,1729787355,0.048335187,0.04073881,238,0,546.0499877929688,0.026012288,1729787352,499.2634988993992,72.9914727,33.6365687,12,,,,,,,,1729787354.7552907,1963,1,0,0,1,5,,,,,,,
127,1729787373.2788634,24575,0,33.63653035984799,72.99145859682783,1.25,,,,,,,,,,,,,,,,,,,,,,,,,,,,,,,,,,,,,,,,,,,,,,,,,,,,,,,,,,,,,,,,,,,,,,,,
128,1729787373.2789884,24576,0,33.63653035984799,72.99145859682783,1.25,,,,,,,,,,,,,,,,,,,,,,,,,,,,,,,,,,,,,,,,,,,,,,,,,,,,,,,,,,,,,,,,,,,,,,,,
129,1729787373.2790124,24577,0,33.63653035984799,72.99145859682783,1.25,,,,,,,,,,,,,,,,,,,,,,,,,,,,,,,,,,,,,,,,,,,,,,,,,,,,,,,,,,,,,,,,,,,,,,,,
130,1729787373.279122,24578,0,33.63653035984799,72.99145859682783,1.25,,,,,,,,,,,,,,,,,,,,,,,,,,,,,,,,,,,,,,,,,,,,,,,,,,,,,,,,,,,,,,,,,,,,,,,,
131,1729787373.2791476,24579,0,33.63653035984799,72.99145859682783,1.25,,,,,,,,,,,,,,,,,,,,,,,,,,,,,,,,,,,,,,,,,,,,,,,,,,,,,,,,,,,,,,,,,,,,,,,,
132,1729787373.2792697,24580,0,33.63653035984799,72.99145859682783,1.25,,,,,,,,,,,,,,,,,,,,,,,,,,,,,,,,,,,,,,,,,,,,,,,,,,,,1729787367.910516,1318,1729787367,33.6365299,72.9914596,547.2299805,1.5707963705062866,,,,,,,,,,,,,,
133,1729787373.2794015,24581,0,33.63653035984799,72.99145859682783,1.25,1729787355.016807,12492,1729787355,0.077,0.01,0,-0.01,1729787354.7480805,12472,1729787353,-1.69794022,0.5989927342624997,0.312,-0.011063467,-0.002392688,-0.96184591,0.04,0,-0.01,1729787354.7484157,12477,1729787353,-0.010948733,-0.002412458,-0.961746223,0.2737124531860187,-9.40E-05,-0.000924617,-0.000125142,1729787354.756238,12487,1729787354,1000,1000,1000,1000,0,1729787356.002448,12501,1729787356,0.051696051,0.042683918,238,0,546.0700073242188,0.02916443,1729787352,499.2634995119512,72.9914727,33.6365688,12,,,,,,,,,,,,,,,,,,,,,
134,1729787373.2795224,24582,0,33.63653035984799,72.99145859682783,1.25,,,,,,,,,,,,,,,,,,,,,,,,,,,,,,,,,,,,,,,,,,,,,,,,,,,,,,,,,,,,,,,,,,,,,,,,
135,1729787373.279544,24583,0,33.63653035984799,72.99145859682783,1.25,,,,,,,,,,,,,,,,,,,,,,,,,,,,,,,,,,,,,,,,,,,,,,,,,,,,,,,,,,,,,,,,,,,,,,,,
136,1729787373.2796657,24584,0,33.63653035984799,72.99145859682783,1.25,,,,,,,,,,,,,,,,,,,,,,,,,,,,,,,,,,,,,,,,,,,,,,,,,,,,,,,,,,,,,,,,,,,,,,,,
137,1729787373.2797947,24585,0,33.63653035984799,72.99145859682783,1.25,,,,,,,,,,,,,,,,,,,,,,,,,,,,,,,,,,,,,,,,,,,,,,,,,,,,,,,,,,,,,,,,,,,,,,,,
138,1729787373.2799163,24586,0,33.63653035984799,72.99145859682783,1.25,,,,,,,,,,,,,,,,,,,,,,,,,,,,,,,,,,,,,,,,,,,,,,,,,,,,,,,,,,,,,,,,,,,,,,,,
139,1729787373.2799428,24587,0,33.63653035984799,72.99145859682783,1.25,,,,,,,,,,,,,,,,,,,,,,,,,,,,,,,,,,,,,,,,,,,,,,,,,,,,,,,,,,,,,,,,,,,,,,,,
140,1729787373.280054,24588,0,33.63653035984799,72.99145859682783,1.25,1729787355.1112835,12493,1729787355,0.078000002,0.01,0,-0.01,1729787354.7482374,12473,1729787353,-1.707218581,0.5989927362386249,0.311,-0.011051169,-0.002376329,-0.961824736,0.03,0,-0.01,1729787354.749136,12478,1729787353,-0.010936309,-0.002405579,-0.961733359,0.2737582083636518,0.000537446,-0.000549154,0.000326087,1729787354.756287,12488,1729787354,1000,1000,1000,1000,0,1729787356.1011007,12502,1729787356,0.052545942,0.042857386,238,0,546.0800170898438,0.030402619,1729787353,499.2634991,72.9914726,33.6365688,12,,,,,,,,,,,,,,,,,,,,,
141,1729787373.2800777,24589,0,33.63653035984799,72.99145859682783,1.25,,,,,,,,,,,,,,,,,,,,,,,,,,,,,,,,,,,,,,,,,,,,,,,,,,,,,,,,,,,,,,,,,,,,,,,,
142,1729787373.280201,24590,0,33.63653035984799,72.99145859682783,1.25,,,,,,,,,,,,,,,,,,,,,,,,,,,,,,,,,,,,,,,,,,,,,,,,,,,,,,,,,,,,,,,,,,,,,,,,
143,1729787373.2803338,24592,0,33.63653035984799,72.99145859682783,1.25,,,,,,,,,,,,,,,,,,,,,,,,,,,,,,,,,,,,,,,,,,,,,,,,,,,,,,,,,,,,,,,,,,,,,,,,
144,1729787373.2804694,24593,0,33.63653035984799,72.99145859682783,1.25,,,,,,,,,,,,,,,,,,,,,,,,,,,,,,,,,,,,,,,,,,,,,,,,,,,,1729787368.0114625,1319,1729787368,33.6365299,72.9914596,547.2299805,1.5707963705062866,,,,,,,,,,,,,1729787361.075606,6.6
145,1729787381.5783403,24594,0,33.63653035984799,72.99145859682783,1.25,,,,,,,,,,,,,,,,,,,,,,,,,,,,,,,,,,,,,,,,,,,,,,,,,,,,,,,,,,,,,,,,,,,,,,,,
146,1729787381.5785525,24595,0,33.63653035984799,72.99145859682783,1.25,,,,,,,,,,,,,,,,,,,,,,,,,,,,,,,,,,,,,,,,,,,,,,,,,,,,,,,,,,,,,,,,,,,,,,,,
147,1729787381.5785806,24596,0,33.63653035984799,72.99145859682783,1.25,1729787355.2183566,12494,1729787355,0.078000002,0.01,0,-0.01,1729787354.7484932,12474,1729787353,-1.707218579,0.6100851908006546,0.311,-0.01099649,-0.00240296,-0.961801423,0.03,0,-0.01,1729787354.7497303,12479,1729787353,-0.010923742,-0.002408464,-0.961713948,0.2738268682491709,-0.000878073,-0.000445571,0.000776712,1729787354.8043458,12489,1729787354,1000,1000,1000,1000,0,1729787356.2045195,12503,1729787356,0.054431066,0.04425906,238,0,546.0899658203125,0.031684011,1729787353,499.26349871797686,72.9914725,33.6365688,12,,,,,,,,,,,,,,,,,,,,,
148,1729787381.5789263,24597,0,33.63653035984799,72.99145859682783,1.25,,,,,,,,,,,,,,,,,,,,,,,,,,,,,,,,,,,,,,,,,,,,,,,,,,,,,,,,,,,,,,,,,,,,,,,,
149,1729787381.5791397,24598,0,33.63653035984799,72.99145859682783,1.25,,,,,,,,,,,,,,,,,,,,,,,,,,,,,,,,,,,,,,,,,,,,,,,,,,,,,,,,,,,,,,,,,,,,,,,,
150,1729787381.5793328,24599,0,33.63653035984799,72.99145859682783,1.25,,,,,,,,,,,,,,,,,,,,,,,,,,,,,,,,,,,,,,,,,,,,,,,,,,,,,,,,,,,,,,,,,,,,,,,,
151,1729787381.579362,24600,0,33.63653035984799,72.99145859682783,1.25,,,,,,,,,,,,,,,,,,,,,,,,,,,,,,,,,,,,,,,,,,,,,,,,,,,,,,,,,,,,,,,,,,,,,,,,
152,1729787381.579389,24601,0,33.63653035984799,72.99145859682783,1.25,,,,,,,,,,,,,,,,,,,,,,,,,,,,,,,,,,,,,,,,,,,,,,,,,,,,,,,,,,,,,,,,,,,,,,,,
153,1729787381.5794244,24602,0,33.63653035984799,72.99145859682783,1.25,,,,,,,,,,,,,,,,,,,,,,,,,,,,,,,,,,,,,,,,,,,,,,,,,,,,,,,,,,,,,,,,,,,,,,,,
154,1729787381.5796142,24603,0,33.63653035984799,72.99145859682783,1.25,1729787355.3114417,12495,1729787355,0.074000001,0.01,0,-0.01,1729787354.7492735,12475,1729787353,-1.707218579,0.6100851908006546,0.311,-0.01098301,-0.002425929,-0.961778999,0.03,0,-0.01,1729787354.7502804,12480,1729787353,-0.010934115,-0.002421702,-0.961699548,0.2738769046907806,-4.01E-05,-0.001222247,0.001337139,1729787354.8985243,12490,1729787354,1000,1000,1000,1000,0,1729787356.3003647,12504,1729787356,0.055403773,0.045633554,238,0,546.0999755859375,0.031419054,1729787353,499.2634993305288,72.9914725,33.6365689,12,,,,,,,,,,,,,,,,,,,,,
155,1729787381.5797498,24604,0,33.63653035984799,72.99145859682783,1.25,,,,,,,,,,,,,,,,,,,,,,,,,,,,,,,,,,,,,,,,,,,,,,,,,,,,,,,,,,,,,,,,,,,,,,,,
156,1729787381.5798717,24605,0,33.63653035984799,72.99145859682783,1.25,,,,,,,,,,,,,,,,,,,,,,,,,,,,,,,,,,,,,,,,,,,,,,,,,,,,1729787368.1151357,1320,1729787368,33.6365299,72.9914596,547.2299805,1.5707963705062866,,,,,,,,,,,,,,
157,1729787381.5798955,24606,0,33.63653035984799,72.99145859682783,1.25,,,,,,,,,,,,,,,,,,,,,,,,,,,,,,,,,,,,,,,,,,,,,,,,,,,,,,,,,,,,,,,,,,,,,,,,
158,1729787381.5800147,24607,0,33.63653035984799,72.99145859682783,1.25,,,,,,,,,,,,,,,,,,,,,,,,,,,,,,,,,,,,,,,,,,,,,,,,,,,,,,,,,,,,,,,,,,,,,,,,
159,1729787381.5801544,24608,0,33.63653035984799,72.99145859682783,1.25,,,,,,,,,,,,,,,,,,,,,,,,,,,,,,,,,,,,,,,,,,,,,,,,,,,,,,,,,,,,,,,,,,,,,,,,
160,1729787381.6672642,24609,0,33.63653035984799,72.99145859682783,1.25,,,,,,,,,,,,,,,,,,,,,,,,,,,,,,,,,,,,,,,,,,,,,,,,,,,,,,,,,,,,,,,,,,,,,,,,
161,1729787381.667303,24610,0,33.63653035984799,72.99145859682783,1.25,1729787355.421317,12496,1729787355,0.078000002,0.01,0,-0.01,1729787354.7498376,12476,1729787353,-1.71649694,0.6100851927767799,0.312,-0.010952261,-0.002414483,-0.961763306,0.03,0,-0.01,1729787354.7505898,12481,1729787353,-0.01095536,-0.00242923,-0.961688468,0.2739148935638842,-0.001450574,-0.000321668,3.155972808599476e-05,1729787355.003575,12491,1729787355,1000,1000,1000,1000,0,1729787356.4047658,12505,1729787356,0.057437178,0.047781155,238,0,546.0999755859375,0.031874616,1729787353,499.2634993305288,72.9914725,33.6365689,12,,,,,,,,,,,,,,,,,,,,,
162,1729787381.6673474,24611,0,33.63653035984799,72.99145859682783,1.25,,,,,,,,,,,,,,,,,,,,,,,,,,,,,,,,,,,,,,,,,,,,,,,,,,,,,,,,,,,,,,,,,,,,,,,,
163,1729787381.6673863,24612,0,33.63653035984799,72.99145859682783,1.25,,,,,,,,,,,,,,,,,,,,,,,,,,,,,,,,,,,,,,,,,,,,,,,,,,,,,,,,,,,,,,,,,,,,,,,,
164,1729787381.6675284,24613,0,33.63653035984799,72.99145859682783,1.25,,,,,,,,,,,,,,,,,,,,,,,,,,,,,,,,,,,,,,,,,,,,,,,,,,,,,,,,,,,,,,,,,,,,,,,,
165,1729787381.667664,24614,0,33.63653035984799,72.99145859682783,1.25,,,,,,,,,,,,,,,,,,,,,,,,,,,,,,,,,,,,,,,,,,,,,,,,,,,,,,,,,,,,,,,,,,,,,,,,
166,1729787381.667801,24615,0,33.63653035984799,72.99145859682783,1.25,,,,,,,,,,,,,,,,,,,,,,,,,,,,,,,,,,,,,,,,,,,,,,,,,,,,,,,,,,,,,,,,,,,,,,,,
167,1729787381.6679275,24616,0,33.63653035984799,72.99145859682783,1.25,,,,,,,,,,,,,,,,,,,,,,,,,,,,,,,,,,,,,,,,,,,,,,,,,,,,,,,,,,,,,,,,,,,,,,,,
168,1729787381.667954,24617,0,33.63653035984799,72.99145859682783,1.25,1729787355.5119731,12497,1729787355,0.081,0.01,0,-0.01,1729787354.7504127,12477,1729787353,-1.71649694,0.6100851927767799,0.313,-0.010948733,-0.002412458,-0.961746223,0.02,0,-0.01,1729787354.750958,12482,1729787354,-0.010967945,-0.00243175,-0.96167756,0.2739526618331516,-0.000630016,-0.000523243,0.000849916,1729787355.101477,12492,1729787355,1000,1000,1000,1000,0,1729787356.5002224,12506,1729787356,0.059401385,0.050772771,238,0,546.0999755859375,0.030832622,1729787353,499.2634989335416,72.9914724,33.6365689,12,1729787368.2145362,1321,1729787368,33.6365299,72.9914596,547.2299805,1.5707963705062866,,,,,,,,,,,,,,
169,1729787382,24618,0,33.63653035984799,72.99145859682783,1.25,,,,,,,,,,,,,,,,,,,,,,,,,,,,,,,,,,,,,,,,,,,,,,,,,,,,,,,,,,,,,,,,,,,,,,,,
170,1729787381.6680875,24619,0,33.63653035984799,72.99145859682783,1.25,,,,,,,,,,,,,,,,,,,,,,,,,,,,,,,,,,,,,,,,,,,,,,,,,,,,,,,,,,,,,,,,,,,,,,,,
171,1729787381.6682043,24620,0,33.63653035984799,72.99145859682783,1.25,,,,,,,,,,,,,,,,,,,,,,,,,,,,,,,,,,,,,,,,,,,,,,,,,,,,,,,,,,,,,,,,,,,,,,,,
172,1729787381.668233,24621,0,33.63653035984799,72.99145859682783,1.25,,,,,,,,,,,,,,,,,,,,,,,,,,,,,,,,,,,,,,,,,,,,,,,,,,,,,,,,,,,,,,,,,,,,,,,,
173,1729787381.6682572,24622,0,33.63653035984799,72.99145859682783,1.25,,,,,,,,,,,,,,,,,,,,,,,,,,,,,,,,,,,,,,,,,,,,,,,,,,,,,,,,,,,,,,,,,,,,,,,,
174,1729787381.668363,24623,0,33.63653035984799,72.99145859682783,1.25,,,,,,,,,,,,,,,,,,,,,,,,,,,,,,,,,,,,,,,,,,,,,,,,,,,,,,,,,,,,,,,,,,,,,,,,
175,1729787381.6684928,24624,0,33.63653035984799,72.99145859682783,1.25,1729787355.6188395,12498,1729787355,0.078000002,0.01,0,-0.01,1729787354.750641,12478,1729787353,-1.725775303,0.6100851938945103,0.315,-0.010936309,-0.002405579,-0.961733359,0.02,0,-0.01,1729787354.7512789,12483,1729787354,-0.010971474,-0.002452167,-0.961671345,0.2739741537889726,0.000853842,0.000130905,0.000171686,1729787355.2036948,12493,1729787355,1000,1000,1000,1000,0,1729787356.6026502,12507,1729787356,0.062099494,0.053327531,238,0,546.1099853515625,0.031820133,1729787353,499.2634989335416,72.9914724,33.6365689,12,,,,,,,,,,,,,,,,,,,,,
176,1729787381.6686196,24625,0,33.63653035984799,72.99145859682783,1.25,,,,,,,,,,,,,,,,,,,,,,,,,,,,,,,,,,,,,,,,,,,,,,,,,,,,,,,,,,,,,,,,,,,,,,,,
177,1729787381.668739,24626,0,33.63653035984799,72.99145859682783,1.25,,,,,,,,,,,,,,,,,,,,,,,,,,,,,,,,,,,,,,,,,,,,,,,,,,,,,,,,,,,,,,,,,,,,,,,,
178,1729787381.6687636,24627,0,33.63653035984799,72.99145859682783,1.25,,,,,,,,,,,,,,,,,,,,,,,,,,,,,,,,,,,,,,,,,,,,,,,,,,,,,,,,,,,,,,,,,,,,,,,,
179,1729787381.668876,24628,0,33.63653035984799,72.99145859682783,1.25,,,,,,,,,,,,,,,,,,,,,,,,,,,,,,,,,,,,,,,,,,,,,,,,,,,,,,,,,,,,,,,,,,,,,,,,
180,1729787381.6689067,24629,0,33.63653035984799,72.99145859682783,1.25,,,,,,,,,,,,,,,,,,,,,,,,,,,,,,,,,,,,,,,,,,,,,,,,,,,,1729787368.3121102,1322,1729787368,33.6365299,72.9914596,547.2299805,1.5707963705062866,,,,,,,,,,,,,1729787362.077473,6.6
181,1729787381.6690235,24630,0,33.63653035984799,72.99145859682783,1.25,,,,,,,,,,,,,,,,,,,,,,,,,,,,,,,,,,,,,,,,,,,,,,,,,,,,,,,,,,,,,,,,,,,,,,,,
182,1729787381.6690502,24631,0,33.63653035984799,72.99145859682783,1.25,1729787355.7120848,12499,1729787355,0.075999998,0.01,0,-0.01,1729787354.751015,12479,1729787353,-1.725775303,0.6100851938945103,0.314,-0.010923742,-0.002408464,-0.961713948,0.02,0,-0.01,1729787354.7516043,12484,1729787354,-0.010962456,-0.002419757,-0.961663012,0.2740040506162274,-0.000934452,-7.80E-05,-0.000337572,1729787355.299793,12494,1729787355,1000,1000,1000,1000,0,1729787356.7011404,12508,1729787356,0.063271768,0.054374494,238,0,546.1199951171875,0.032353215,1729787353,499.2634985365544,72.9914723,33.6365689,12,,,,,,,,,,,,,,,,,,,,,
183,1729787381.6690738,24632,0,33.63653035984799,72.99145859682783,1.25,,,,,,,,,,,,,,,,,,,,,,,,,,,,,,,,,,,,,,,,,,,,,,,,,,,,,,,,,,,,,,,,,,,,,,,,
184,1729787381.6691897,24633,0,33.63653035984799,72.99145859682783,1.25,,,,,,,,,,,,,,,,,,,,,,,,,,,,,,,,,,,,,,,,,,,,,,,,,,,,,,,,,,,,,,,,,,,,,,,,
185,1729787381.6693203,24634,0,33.63653035984799,72.99145859682783,1.25,,,,,,,,,,,,,,,,,,,,,,,,,,,,,,,,,,,,,,,,,,,,,,,,,,,,,,,,,,,,,,,,,,,,,,,,
186,1729787381.669448,24635,0,33.63653035984799,72.99145859682783,1.25,,,,,,,,,,,,,,,,,,,,,,,,,,,,,,,,,,,,,,,,,,,,,,,,,,,,,,,,,,,,,,,,,,,,,,,,
187,1729787381.6695657,24636,0,33.63653035984799,72.99145859682783,1.25,,,,,,,,,,,,,,,,,,,,,,,,,,,,,,,,,,,,,,,,,,,,,,,,,,,,,,,,,,,,,,,,,,,,,,,,
188,1729787381.6695914,24637,0,33.63653035984799,72.99145859682783,1.25,,,,,,,,,,,,,,,,,,,,,,,,,,,,,,,,,,,,,,,,,,,,,,,,,,,,,,,,,,,,,,,,,,,,,,,,
189,1729787381.669704,24638,0,33.63653035984799,72.99145859682783,1.25,1729787355.819041,12500,1729787355,0.075999998,0.01,0,-0.01,1729787354.7513916,12480,1729787353,-1.735053662,0.610085195,0.309,-0.010934115,-0.002421702,-0.961699548,0.02,0,-0.01,1729787354.7524865,12485,1729787354,-0.010947758,-0.002404131,-0.961645955,0.2740646347235957,-0.000220524,-0.000118393,0.000831582,1729787355.4066558,12495,1729787355,1000,1000,1000,1000,0,1729787357,12509,1729787356,0.063795209,0.055478018,238,0,546.1199951171875,0.031496298,1729787353,499.2634985365544,72.9914723,33.6365689,12,,,,,,,,1729787354.9362578,1964,1,0,0,1,5,,,,,,,
190,1729787381.6697297,24639,0,33.63653035984799,72.99145859682783,1.25,,,,,,,,,,,,,,,,,,,,,,,,,,,,,,,,,,,,,,,,,,,,,,,,,,,,,,,,,,,,,,,,,,,,,,,,
191,1729787381.669845,24640,0,33.63653035984799,72.99145859682783,1.25,,,,,,,,,,,,,,,,,,,,,,,,,,,,,,,,,,,,,,,,,,,,,,,,,,,,,,,,,,,,,,,,,,,,,,,,
192,1729787381.6698709,24641,0,33.63653035984799,72.99145859682783,1.25,,,,,,,,,,,,,,,,,,,,,,,,,,,,,,,,,,,,,,,,,,,,,,,,,,,,1729787368.4117007,1323,1729787368,33.6365299,72.9914596,547.2299805,1.5707963705062866,,,,,,,,,,,,,,
193,1729787381.6698918,24642,0,33.63653035984799,72.99145859682783,1.25,,,,,,,,,,,,,,,,,,,,,,,,,,,,,,,,,,,,,,,,,,,,,,,,,,,,,,,,,,,,,,,,,,,,,,,,
194,1729787381.670015,24643,0,33.63653035984799,72.99145859682783,1.25,,,,,,,,,,,,,,,,,,,,,,,,,,,,,,,,,,,,,,,,,,,,,,,,,,,,,,,,,,,,,,,,,,,,,,,,
195,1729787381.6701438,24644,0,33.63653035984799,72.99145859682783,1.25,,,,,,,,,,,,,,,,,,,,,,,,,,,,,,,,,,,,,,,,,,,,,,,,,,,,,,,,,,,,,,,,,,,,,,,,
196,1729787381.6702735,24645,0,33.63653035984799,72.99145859682783,1.25,1729787355.914471,12501,1729787355,0.079000004,0.01,0,-0.01,1729787354.751594,12481,1729787353,-1.735053662,0.610085195,0.303,-0.01095536,-0.00242923,-0.961688468,0.02,0,-0.01,1729787354.7525425,12486,1729787354,-0.010952187,-0.002391131,-0.961630037,0.2741204174088382,0.000479786,-0.001179256,0.000404532,1729787355.4996653,12496,1729787355,1000,1000,1000,1000,0,1729787356.899983,12510,1729787356,0.0630669,0.054308098,238,0,546.1199951171875,0.032063413,1729787353,499.25349813956734,72.9914722,33.6365689,12,,,,,,,,,,,,,,,,,,,,,
197,1729787381.670453,24646,0,33.63653035984799,72.99145859682783,1.25,,,,,,,,,,,,,,,,,,,,,,,,,,,,,,,,,,,,,,,,,,,,,,,,,,,,,,,,,,,,,,,,,,,,,,,,
198,1729787381.670479,24647,0,33.63653035984799,72.99145859682783,1.25,,,,,,,,,,,,,,,,,,,,,,,,,,,,,,,,,,,,,,,,,,,,,,,,,,,,,,,,,,,,,,,,,,,,,,,,
199,1729787381.6705897,24648,0,33.63653035984799,72.99145859682783,1.25,,,,,,,,,,,,,,,,,,,,,,,,,,,,,,,,,,,,,,,,,,,,,,,,,,,,,,,,,,,,,,,,,,1729787361.707385,0.6285714285714286,-66,,,,
200,1729787381.6706183,24649,0,33.63653035984799,72.99145859682783,1.25,,,,,,,,,,,,,,,,,,,,,,,,,,,,,,,,,,,,,,,,,,,,,,,,,,,,,,,,,,,,,,,,,,,,,,,,
201,1729787381.6706998,24650,0,33.63653035984799,72.99145859682783,1.25,,,,,,,,,,,,,,,,,,,,,,,,,,,,,,,,,,,,,,,,,,,,,,,,,,,,,,,,,,,,,,,,,,,,,,,,
202,1729787381.6708505,24651,0,33.63653035984799,72.99145859682783,1.25,,,,,,,,,,,,,,,,,,,,,,,,,,,,,,,,,,,,,,,,,,,,,,,,,,,,,,,,,,,,,,,,,,,,,,,,
203,1729787381.670875,24652,0,33.63653035984799,72.99145859682783,1.25,1729787356.0183003,12502,1729787356,0.081,0.01,0,-0.01,1729787354.7523649,12482,1729787354,-1.735053657,0.6211776498225691,0.297,-0.010967945,-0.00243175,-0.96167756,0.02,0,-0.01,1729787354.7552006,12487,1729787354,-0.01095169,-0.002377032,-0.961611685,0.2741849322830881,0.00073207,-0.000676859,4.193931818008431e-05,1729787355.6058855,12497,1729787355,1000,1000,1000,1000,0,1729787357.0020795,12511,1729787357,0.062636241,0.053831205,238,0,546.1199951171875,0.032023422,1729787353,499.25349813956734,72.9914722,33.6365689,12,,,,,,,,,,,,,,,,,,,,,
204,1729787382,24653,0,33.63653035984799,72.99145859682783,1.25,,,,,,,,,,,,,,,,,,,,,,,,,,,,,,,,,,,,,,,,,,,,,,,,,,,,1729787368.5120423,1324,1729787368,33.6365299,72.9914596,547.2299805,1.5707963705062866,,,,,,,,,,,,,,
205,1729787381.672682,24654,0,33.63653035984799,72.99145859682783,1.25,,,,,,,,,,,,,,,,,,,,,,,,,,,,,,,,,,,,,,,,,,,,,,,,,,,,,,,,,,,,,,,,,,,,,,,,
206,1729787381.6728127,24655,0,33.63653035984799,72.99145859682783,1.25,,,,,,,,,,,,,,,,,,,,,,,,,,,,,,,,,,,,,,,,,,,,,,,,,,,,,,,,,,,,,,,,,,,,,,,,
207,1729787382,24656,0,33.63653035984799,72.99145859682783,1.25,,,,,,,,,,,,,,,,,,,,,,,,,,,,,,,,,,,,,,,,,,,,,,,,,,,,,,,,,,,,,,,,,,,,,,,,
208,1729787381.6729653,24657,0,33.63653035984799,72.99145859682783,1.25,,,,,,,,,,,,,,,,,,,,,,,,,,,,,,,,,,,,,,,,,,,,,,,,,,,,,,,,,,,,,,,,,,,,,1729787365.400479,7.6,,
209,1729787381.6730802,24658,0,33.63653035984799,72.99145859682783,1.25,,,,,,,,,,,,,,,,,,,,,,,,,,,,,,,,,,,,,,,,,,,,,,,,,,,,,,,,,,,,,,,,,,,,,,,,
210,1729787381.6731143,24659,0,33.63653035984799,72.99145859682783,1.25,1729787356.112321,12503,1729787356,0.075000003,0.01,0,-0.01,1729787354.7544837,12483,1729787354,-1.735053657,0.6211776498225691,0.296,-0.010971474,-0.002452167,-0.961671345,0.02,0,-0.01,1729787354.7553782,12488,1729787354,-0.010954851,-0.002353755,-0.961590922,0.2742578161772823,-0.000900222,-0.000755722,0.000750752,1729787355.7007067,12498,1729787355,1000,1000,1000,1000,0,1729787357.1003642,12512,1729787357,0.062703192,0.054826312,238,0,546.1199951171875,0.03042639,1729787354,499.2434987521192,72.9914722,33.636569,12,,,,,,,,,,,,,,,,,,,,,
211,1729787381.673134,24660,0,33.63653035984799,72.99145859682783,1.25,,,,,,,,,,,,,,,,,,,,,,,,,,,,,,,,,,,,,,,,,,,,,,,,,,,,,,,,,,,,,,,,,,,,,,,,
212,1729787381.6732376,24661,0,33.63653035984799,72.99145859682783,1.25,,,,,,,,,,,,,,,,,,,,,,,,,,,,,,,,,,,,,,,,,,,,,,,,,,,,,,,,,,,,,,,,,,,,,,,,
213,1729787381.6732595,24662,0,33.63653035984799,72.99145859682783,1.25,,,,,,,,,,,,,,,,,,,,,,,,,,,,,,,,,,,,,,,,,,,,,,,,,,,,,,,,,,,,,,,,,,,,,,,,
214,1729787381.6733603,24663,0,33.63653035984799,72.99145859682783,1.25,,,,,,,,,,,,,,,,,,,,,,,,,,,,,,,,,,,,,,,,,,,,,,,,,,,,,,,,,,,,,,,,,,,,,,,,
215,1729787381.673493,24664,0,33.63653035984799,72.99145859682783,1.25,,,,,,,,,,,,,,,,,,,,,,,,,,,,,,,,,,,,,,,,,,,,,,,,,,,,,,,,,,,,,,,,,,,,,,,,
216,1729787381.6736124,24665,0,33.63653035984799,72.99145859682783,1.25,,,,,,,,,,,,,,,,,,,,,,,,,,,,,,,,,,,,,,,,,,,,,,,,,,,,1729787368.634649,1325,1729787368,33.6365305,72.9914596,547.2199707,1.5707963705062866,,,,,,,,,,,,,1729787363.079334,6.6
217,1729787381.6737149,24666,0,33.63653035984799,72.99145859682783,1.25,1729787356.2189932,12504,1729787356,0.074000001,0.01,0,-0.01,1729787354.755171,12484,1729787354,-1.744332022,0.6211776522334471,0.302,-0.010962456,-0.002419757,-0.961663012,0.02,0,-0.01,1729787354.8023078,12489,1729787354,-0.010966962,-0.002345647,-0.961577445,0.2743046509584851,-0.000489688,-0.000447346,0.000260436,1729787355.805066,12499,1729787355,1000,1000,1000,1000,0,1729787357.2033432,12513,1729787357,0.062702537,0.056133304,238,0,546.1199951171875,0.027940266,1729787354,499.2434987521192,72.9914722,33.636569,12,,,,,,,,,,,,,,,,,,,,,
218,1729787381.6999156,24667,0,33.63653035984799,72.99145859682783,1.25,,,,,,,,,,,,,,,,,,,,,,,,,,,,,,,,,,,,,,,,,,,,,,,,,,,,,,,,,,,,,,,,,,,,,,,,
219,1729787381.7000625,24668,0,33.63653035984799,72.99145859682783,1.25,,,,,,,,,,,,,,,,,,,,,,,,,,,,,,,,,,,,,,,,,,,,,,,,,,,,,,,,,,,,,,,,,,,,,,,,
220,1729787381.7001846,24669,0,33.63653035984799,72.99145859682783,1.25,,,,,,,,,,,,,,,,,,,,,,,,,,,,,,,,,,,,,,,,,,,,,,,,,,,,,,,,,,,,,,,,,,,,,,,,
221,1729787381.7002256,24670,0,33.63653035984799,72.99145859682783,1.25,,,,,,,,,,,,,,,,,,,,,,,,,,,,,,,,,,,,,,,,,,,,,,,,,,,,,,,,,,,,,,,,,,,,,,,,
222,1729787381.700352,24671,0,33.63653035984799,72.99145859682783,1.25,,,,,,,,,,,,,,,,,,,,,,,,,,,,,,,,,,,,,,,,,,,,,,,,,,,,,,,,,,,,,,,,,,,,,,,,
223,1729787381.7004828,24672,0,33.63653035984799,72.99145859682783,1.25,,,,,,,,,,,,,,,,,,,,,,,,,,,,,,,,,,,,,,,,,,,,,,,,,,,,,,,,,,,,,,,,,,,,,,,,
224,1729787381.700637,24673,0,33.63653035984799,72.99145859682783,1.25,1729787356.313883,12505,1729787356,0.082000002,0.01,0,-0.01,1729787354.7552598,12485,1729787354,-1.744332022,0.6211776522334471,0.308,-0.010947758,-0.002404131,-0.961645955,0.02,0,-0.01,1729787354.896936,12490,1729787354,-0.010975876,-0.00235298,-0.961564047,0.2743511945651156,-0.00063036,-0.000736341,0.001360531,1729787355.9005382,12500,1729787355,1000,1000,1000,1000,0,1729787357.3000126,12514,1729787357,0.06176402,0.055743244,238,0,546.1099853515625,0.026598612,1729787354,499.2534984,72.9914721,33.636569,12,,,,,,,,,,,,,,,,,,,,,
225,1729787381.700663,24674,0,33.63653035984799,72.99145859682783,1.25,,,,,,,,,,,,,,,,,,,,,,,,,,,,,,,,,,,,,,,,,,,,,,,,,,,,,,,,,,,,,,,,,,,,,,,,
226,1729787381.7006912,24675,0,33.63653035984799,72.99145859682783,1.25,,,,,,,,,,,,,,,,,,,,,,,,,,,,,,,,,,,,,,,,,,,,,,,,,,,,,,,,,,,,,,,,,,,,,,,,
227,1729787381.7008183,24676,0,33.63653035984799,72.99145859682783,1.25,,,,,,,,,,,,,,,,,,,,,,,,,,,,,,,,,,,,,,,,,,,,,,,,,,,,,,,,,,,,,,,,,,,,,,,,
228,1729787381.700941,24677,0,33.63653035984799,72.99145859682783,1.25,,,,,,,,,,,,,,,,,,,,,,,,,,,,,,,,,,,,,,,,,,,,,,,,,,,,1729787368.7169807,1326,1729787368,33.6365302,72.9914597,547.2199707,1.5707963705062866,,,,,,,,,,,,,,
229,1729787381.701067,24678,0,33.63653035984799,72.99145859682783,1.25,,,,,,,,,,,,,,,,,,,,,,,,,,,,,,,,,,,,,,,,,,,,,,,,,,,,,,,,,,,,,,,,,,,,,,,,
230,1729787381.7010958,24679,0,33.63653035984799,72.99145859682783,1.25,,,,,,,,,,,,,,,,,,,,,,,,,,,,,,,,,,,,,,,,,,,,,,,,,,,,,,,,,,,,,,,,,,,,,,,,
231,1729787381.701216,24680,0,33.63653035984799,72.99145859682783,1.25,1729787356.4197955,12506,1729787356,0.078000002,0.01,0,-0.01,1729787354.7553377,12486,1729787354,-1.744332025,0.6211776529322788,0.311,-0.010952187,-0.002391131,-0.961630037,0.02,0,-0.01,1729787355.0015972,12491,1729787354,-0.010973217,-0.002361348,-0.96155582,0.2743800596358899,-0.000877995,6.510503590106965e-05,7.11865723133087e-05,1729787356.0051076,12501,1729787356,1000,1000,1000,1000,0,1729787357.4019468,12515,1729787357,0.061216634,0.056217942,238,0,546.1099853515625,0.024228441,1729787354,499.2534984,72.9914721,33.636569,12,,,,,,,,,,,,,,,,,,,,,
232,1729787381.7013867,24681,0,33.63653035984799,72.99145859682783,1.25,,,,,,,,,,,,,,,,,,,,,,,,,,,,,,,,,,,,,,,,,,,,,,,,,,,,,,,,,,,,,,,,,,,,,,,,
233,1729787381.7041345,24682,0,33.63653035984799,72.99145859682783,1.25,,,,,,,,,,,,,,,,,,,,,,,,,,,,,,,,,,,,,,,,,,,,,,,,,,,,,,,,,,,,,,,,,,,,,,,,
234,1729787381.7042632,24683,0,33.63653035984799,72.99145859682783,1.25,,,,,,,,,,,,,,,,,,,,,,,,,,,,,,,,,,,,,,,,,,,,,,,,,,,,,,,,,,,,,,,,,,,,,,,,
235,1729787381.7043862,24684,0,33.63653035984799,72.99145859682783,1.25,,,,,,,,,,,,,,,,,,,,,,,,,,,,,,,,,,,,,,,,,,,,,,,,,,,,,,,,,,,,,,,,,,,,,,,,
236,1729787381.7045138,24685,0,33.63653035984799,72.99145859682783,1.25,,,,,,,,,,,,,,,,,,,,,,,,,,,,,,,,,,,,,,,,,,,,,,,,,,,,,,,,,,,,,,,,,,,,,,,,
237,1729787381.7045386,24686,0,33.63653035984799,72.99145859682783,1.25,,,,,,,,,,,,,,,,,,,,,,,,,,,,,,,,,,,,,,,,,,,,,,,,,,,,,,,,,,,,,,,,,,,,,,,,
238,1729787381.7045572,24687,0,33.63653035984799,72.99145859682783,1.25,1729787356.511162,12507,1729787356,0.075999998,0.01,0,-0.01,1729787354.755453,12487,1729787354,-1.744332025,0.6211776529322788,0.316,-0.01095169,-0.002377032,-0.961611685,0.02,0,-0.01,1729787355.096445,12492,1729787355,-0.010996249,-0.00239365,-0.961547976,0.2744063456957927,0.001107205,-0.001131238,0.00019268,1729787356.1010718,12502,1729787356,1000,1000,1000,1000,0,1729787357.5006998,12516,1729787357,0.062168628,0.057995446,238,0,546.1099853515625,0.02239345,1729787354,499.2634984,72.9914721,33.636569,12,,,,,,,,,,,,,,,,,,,,,
239,1729787381.7049022,24688,0,33.63653035984799,72.99145859682783,1.25,,,,,,,,,,,,,,,,,,,,,,,,,,,,,,,,,,,,,,,,,,,,,,,,,,,,,,,,,,,,,,,,,,,,,,,,
240,1729787381.705138,24689,0,33.63653035984799,72.99145859682783,1.25,,,,,,,,,,,,,,,,,,,,,,,,,,,,,,,,,,,,,,,,,,,,,,,,,,,,1729787368.8130465,1327,1729787368,33.6365302,72.9914597,547.2199707,1.5707963705062866,,,,,,,,,,,,,,
241,1729787381.705174,24690,0,33.63653035984799,72.99145859682783,1.25,,,,,,,,,,,,,,,,,,,,,,,,,,,,,,,,,,,,,,,,,,,,,,,,,,,,,,,,,,,,,,,,,,,,,,,,
242,1729787381.7052932,24691,0,33.63653035984799,72.99145859682783,1.25,,,,,,,,,,,,,,,,,,,,,,,,,,,,,,,,,,,,,,,,,,,,,,,,,,,,,,,,,,,,,,,,,,,,,,,,
243,1729787381.705416,24692,0,33.63653035984799,72.99145859682783,1.25,,,,,,,,,,,,,,,,,,,,,,,,,,,,,,,,,,,,,,,,,,,,,,,,,,,,,,,,,,,,,,,,,,,,,,,,
244,1729787381.7055318,24693,0,33.63653035984799,72.99145859682783,1.25,,,,,,,,,,,,,,,,,,,,,,,,,,,,,,,,,,,,,,,,,,,,,,,,,,,,,,,,,,,,,,,,,,,,,,,,
245,1729787381.705649,24694,0,33.63653035984799,72.99145859682783,1.25,1729787356.6191647,12508,1729787356,0.078000002,0.01,0,-0.01,1729787354.7568283,12488,1729787354,-1.753610389,0.6211776561005529,0.322,-0.010954851,-0.002353755,-0.961590922,0.02,0,-0.01,1729787355.2017882,12493,1729787355,-0.011038157,-0.002416052,-0.961524331,0.27448731,-0.000286592,-0.000861203,0.000227096,1729787356.2044237,12503,1729787356,1000,1000,1000,1000,0,1729787357.6035757,12517,1729787357,0.063488632,0.059839446,237,0,546.0999755859375,0.021214278,1729787354,499.2634984,72.9914721,33.636569,12,,,,,,,,,,,,,,,,,,,,,
246,1729787381.7057638,24695,0,33.63653035984799,72.99145859682783,1.25,,,,,,,,,,,,,,,,,,,,,,,,,,,,,,,,,,,,,,,,,,,,,,,,,,,,,,,,,,,,,,,,,,,,,,,,
247,1729787381.7057884,24696,0,33.63653035984799,72.99145859682783,1.25,,,,,,,,,,,,,,,,,,,,,,,,,,,,,,,,,,,,,,,,,,,,,,,,,,,,,,,,,,,,,,,,,,,,,,,,
248,1729787381.7058096,24697,0,33.63653035984799,72.99145859682783,1.25,,,,,,,,,,,,,,,,,,,,,,,,,,,,,,,,,,,,,,,,,,,,,,,,,,,,,,,,,,,,,,,,,,,,,,,,
249,1729787381.7060032,24698,0,33.63653035984799,72.99145859682783,1.25,,,,,,,,,,,,,,,,,,,,,,,,,,,,,,,,,,,,,,,,,,,,,,,,,,,,,,,,,,,,,,,,,,,,,,,,
250,1729787381.7060246,24699,0,33.63653035984799,72.99145859682783,1.25,,,,,,,,,,,,,,,,,,,,,,,,,,,,,,,,,,,,,,,,,,,,,,,,,,,,,,,,,,,,,,,,,,,,,,,,
251,1729787381.706128,24700,0,33.63653035984799,72.99145859682783,1.25,,,,,,,,,,,,,,,,,,,,,,,,,,,,,,,,,,,,,,,,,,,,,,,,,,,,,,,,,,,,,,,,,,,,,,,,
252,1729787381.7062445,24701,0,33.63653035984799,72.99145859682783,1.25,1729787356.7101471,12509,1729787356,0.083999999,0.01,0,-0.01,1729787354.8025625,12489,1729787354,-1.753610389,0.6211776561005529,0.327,-0.010966962,-0.002345647,-0.961577445,0.02,0,-0.01,1729787355.2967663,12494,1729787355,-0.011047106,-0.002435609,-0.961503626,0.2745592963659765,0.000591012,-0.000617791,0.000714841,1729787356,12504,1729787356,1000,1000,1000,1000,0,1729787358,12518,1729787357,0.063811213,0.06087482,237,0,546.0899658203125,0.019134467,1729787354,499.27349795814496,72.991472,33.636569,12,1729787368.9111674,1328,1729787368,33.6365302,72.9914597,547.2199707,1.5707963705062866,1729787355.9368205,1965,1,0,0,1,5,,,,,,1729787364.081193,6.6
253,1729787381.706363,24702,0,33.63653035984799,72.99145859682783,1.25,,,,,,,,,,,,,,,,,,,,,,,,,,,,,,,,,,,,,,,,,,,,,,,,,,,,,,,,,,,,,,,,,,,,,,,,
254,1729787381.706478,24703,0,33.63653035984799,72.99145859682783,1.25,,,,,,,,,,,,,,,,,,,,,,,,,,,,,,,,,,,,,,,,,,,,,,,,,,,,,,,,,,,,,,,,,,,,,,,,
255,1729787381.7066207,24704,0,33.63653035984799,72.99145859682783,1.25,,,,,,,,,,,,,,,,,,,,,,,,,,,,,,,,,,,,,,,,,,,,,,,,,,,,,,,,,,,,,,,,,,,,,,,,
256,1729787381.7066422,24705,0,33.63653035984799,72.99145859682783,1.25,,,,,,,,,,,,,,,,,,,,,,,,,,,,,,,,,,,,,,,,,,,,,,,,,,,,,,,,,,,,,,,,,,,,,,,,
257,1729787381.7068007,24706,0,33.63653035984799,72.99145859682783,1.25,,,,,,,,,,,,,,,,,,,,,,,,,,,,,,,,,,,,,,,,,,,,,,,,,,,,,,,,,,,,,,,,,,,,,,,,
258,1729787381.7069263,24707,0,33.63653035984799,72.99145859682783,1.25,,,,,,,,,,,,,,,,,,,,,,,,,,,,,,,,,,,,,,,,,,,,,,,,,,,,,,,,,,,,,,,,,,,,,,,,
259,1729787381.7070386,24708,0,33.63653035984799,72.99145859682783,1.25,1729787356.8177423,12510,1729787356,0.078000002,0.01,0,-0.01,1729787354.896745,12490,1729787354,-1.753610389,0.6211776561005529,0.329,-0.010975876,-0.00235298,-0.961564047,0.02,0,-0.01,1729787355.401432,12495,1729787355,-0.011044886,-0.00245103,-0.961480032,0.2746418594199876,-0.000894887,-0.000203589,0.000548316,1729787356.4045806,12505,1729787356,1000,1000,1000,1000,0,1729787357.802775,12519,1729787357,0.064395338,0.061767627,237,0,546.0899658203125,0.018207669,1729787354,499.27349795814496,72.991472,33.636569,13,,,,,,,,,,,,,,,,,,,,,
260,1729787381.7070642,24709,0,33.63653035984799,72.99145859682783,1.25,,,,,,,,,,,,,,,,,,,,,,,,,,,,,,,,,,,,,,,,,,,,,,,,,,,,,,,,,,,,,,,,,,,,,,,,
261,1729787381.7072532,24710,0,33.63653035984799,72.99145859682783,1.25,,,,,,,,,,,,,,,,,,,,,,,,,,,,,,,,,,,,,,,,,,,,,,,,,,,,,,,,,,,,,,,,,,,,,,,,
262,1729787381.7104683,24711,0,33.63653035984799,72.99145859682783,1.25,,,,,,,,,,,,,,,,,,,,,,,,,,,,,,,,,,,,,,,,,,,,,,,,,,,,,,,,,,,,,,,,,,,,,,,,
